{"version": 0.6, "generator": "Overpass API 0.7.55.7 8b86ff77", "osm3s": {"timestamp_osm_base": "2019-07-08T15:38:02Z", "timestamp_areas_base": "2019-07-08T14:41:02Z", "copyright": "The data included in this document is from www.openstreetmap.org. The data is made available under ODbL."}, "elements": [{"type": "node", "id": 21713847, "lat": 52.6482746, "lon": 0.6887474, "tags": {"addr:housenumber": "73", "addr:postcode": "PE37 7AQ", "addr:street": "Market Place", "fhrs:id": "832162", "name": "Impson Butchers", "shop": "butcher", "source:addr": "FSA Food Hygiene Ratings Database"}}, {"type": "node", "id": 25612045, "lat": 52.2544168, "lon": 0.1051705, "tags": {"name": "Histon Chop Shop", "shop": "butcher", "website": "https://www.histonchopshop.com/"}}, {"type": "node", "id": 27396297, "lat": 51.3023491, "lon": 1.2932477, "tags": {"addr:city": "Ash", "addr:place": "Lower Goldstone", "addr:postcode": "CT3 2DY", "fhrs:id": "254708", "name": "Goldstone Butchers", "shop": "butcher"}}, {"type": "node", "id": 27441248, "lat": 51.282562, "lon": 1.073742, "tags": {"addr:city": "Canterbury", "addr:country": "GB", "addr:housenumber": "25", "addr:postcode": "CT2 8BT", "addr:street": "St. Dunstan's Street", "fhrs:id": "1091477", "name": "E Hedger", "shop": "butcher"}}, {"type": "node", "id": 29781654, "lat": 51.3346567, "lon": 1.3128303, "tags": {"shop": "butcher"}}, {"type": "node", "id": 29844256, "lat": 52.092346, "lon": 0.4905144, "tags": {"addr:housenumber": "2", "addr:parentstreet": "Westward Deals", "addr:postcode": "CB9 7PR", "addr:street": "The Parade", "addr:village": "Kedington", "fhrs:id": "1113903", "name": "Kedington Butchers", "shop": "butcher", "source:addr": "FHRS Open Data"}}, {"type": "node", "id": 29949815, "lat": 51.3046728, "lon": 1.2278989, "tags": {"addr:city": "Canterbury", "addr:postcode": "CT3 1ED", "addr:street": "The Street", "addr:village": "Preston", "fhrs:id": "291026", "name": "Preston Family Butchers", "shop": "butcher"}}, {"type": "node", "id": 31416240, "lat": 51.9579088, "lon": -1.2335998, "tags": {"amenity": "post_office", "name": "G B Wrighton & Son", "shop": "butcher"}}, {"type": "node", "id": 38908815, "lat": 54.6576058, "lon": -2.7607227, "tags": {"shop": "butcher"}}, {"type": "node", "id": 49341348, "lat": 50.8130994, "lon": -1.1742456, "tags": {"created_by": "JOSM", "shop": "butcher"}}, {"type": "node", "id": 78002086, "lat": 52.7922754, "lon": -2.0794739, "tags": {"addr:housenumber": "37", "addr:postcode": "ST17 0EF", "addr:street": "Bodmin Avenue", "fhrs:id": "386561", "is_in": "Baswich, Stafford, UK", "name": "M. Mottershead", "shop": "butcher", "source:addr": "FHRS Open Data"}}, {"type": "node", "id": 96528640, "lat": 51.4889484, "lon": 0.3396427, "tags": {"shop": "butcher"}}, {"type": "node", "id": 101386366, "lat": 53.3318375, "lon": -2.977691, "tags": {"name": "Muffs", "shop": "butcher"}}, {"type": "node", "id": 164559374, "lat": 53.7384053, "lon": -0.492155, "tags": {"addr:city": "Swanland", "addr:housenumber": "12a", "addr:postcode": "HU14 3PE", "addr:street": "West End", "name": "Morley's", "shop": "butcher"}}, {"type": "node", "id": 183296738, "lat": 55.9424743, "lon": -3.2815848, "tags": {"addr:housenumber": "139", "addr:street": "St John's Road", "name": "Charles Wilson", "shop": "butcher", "source": "survey"}}, {"type": "node", "id": 205237692, "lat": 54.3037883, "lon": -2.1963146, "tags": {"created_by": "JOSM", "is_in": "Hawes, Richmondshire, North Yorkshire, England, UK", "name": "J.W. Cockett & Son", "shop": "butcher", "source": "Local Knowledge"}}, {"type": "node", "id": 249315771, "lat": 51.5051095, "lon": -0.0580509, "tags": {"addr:city": "London", "addr:housenumber": "64", "addr:postcode": "E1W 2RL", "addr:street": "Wapping Lane", "name": "Hussey's Butchers", "opening_hours": "Mo-Fr 07:00-19:30; Sa 07:00-17:30; Su 09:00-14:00", "phone": "+44 20 7488 3686", "shop": "butcher", "website": "http://www.husseyswappinglane.co.uk/"}}, {"type": "node", "id": 251978586, "lat": 51.7053127, "lon": -0.6126374, "tags": {"shop": "butcher"}}, {"type": "node", "id": 252842946, "lat": 50.9260045, "lon": 0.7101123, "tags": {"shop": "butcher"}}, {"type": "node", "id": 264389769, "lat": 54.1821474, "lon": -2.7212236, "tags": {"addr:city": "Burton-in-Kendal", "addr:housename": "Chester House", "addr:postcode": "LA6 1LY", "addr:street": "Main Street", "fhrs:id": "328847", "name": "Burton Meats & Bakers", "phone": "+44 1524 781219", "shop": "butcher"}}, {"type": "node", "id": 268844827, "lat": 51.5114814, "lon": -0.8839559, "tags": {"name": "Shiplake Butchers", "shop": "butcher"}}, {"type": "node", "id": 275942583, "lat": 52.0413563, "lon": -0.1545044, "tags": {"addr:city": "Ashwell", "addr:county": "Hertfordshire", "addr:housenumber": "3", "addr:postcode": "SG7 5LY", "addr:street": "Mill Street", "fhrs:id": "961477", "name": "Crumps", "shop": "butcher", "source:addr": "FHRS Open Data"}}, {"type": "node", "id": 283544584, "lat": 51.250313, "lon": -0.5969443, "tags": {"addr:housenumber": "113", "name": "Ray Rowley", "postal_code": "GU2 8BE", "shop": "butcher", "source": "survey"}}, {"type": "node", "id": 284469187, "lat": 52.3920008, "lon": -1.6487553, "tags": {"addr:city": "Balsall Common", "addr:housenumber": "204", "addr:postcode": "CV7 7EE", "addr:street": "Station Road", "fhrs:id": "523971", "name": "Taylors", "shop": "butcher"}}, {"type": "node", "id": 287590157, "lat": 56.0297195, "lon": -3.3993516, "tags": {"name": "Brians Butchers", "shop": "butcher"}}, {"type": "node", "id": 288253839, "lat": 52.1459736, "lon": -0.4320846, "tags": {"addr:city": "Bedford", "addr:country": "GB", "addr:housenumber": "3", "addr:postcode": "MK41 9HD", "addr:street": "The Fairway", "fhrs:authority": "Bedford", "fhrs:id": "101182", "fhrs:local_authority_id": "32955", "name": "Eric The Butcher", "shop": "butcher"}}, {"type": "node", "id": 290995517, "lat": 54.7722311, "lon": -5.7512391, "tags": {"created_by": "Potlatch 0.10b", "name": "Fairhill Family Butcher", "shop": "butcher"}}, {"type": "node", "id": 293687187, "lat": 50.9595229, "lon": -2.3785617, "tags": {"name": "Roger Else", "shop": "butcher"}}, {"type": "node", "id": 297044331, "lat": 52.6172314, "lon": -1.1212162, "tags": {"name": "Michael F. Wood", "shop": "butcher"}}, {"type": "node", "id": 301033898, "lat": 52.2409646, "lon": -3.3776171, "tags": {"shop": "butcher"}}, {"type": "node", "id": 305480356, "lat": 51.8969089, "lon": -3.2538374, "tags": {"name": "Beacons Farm Shop - Welsh Venison Centre", "shop": "butcher", "wheelchair": "no"}}, {"type": "node", "id": 305801494, "lat": 52.4567464, "lon": -2.1477143, "tags": {"name": "Mike Graham Butchers", "shop": "butcher"}}, {"type": "node", "id": 305801501, "lat": 52.456511, "lon": -2.1473308, "tags": {"address": "33", "name": "Crown Butchers", "shop": "butcher"}}, {"type": "node", "id": 305808467, "lat": 51.5509718, "lon": -0.2984635, "tags": {"butcher": "halal", "name": "Shafiq & Sons", "phone": "+44 2080028111", "shop": "butcher"}}, {"type": "node", "id": 307478285, "lat": 52.2139298, "lon": 0.1258558, "tags": {"addr:city": "Cambridge", "addr:housenumber": "15", "addr:postcode": "CB4 1EG", "addr:street": "Victoria Avenue", "fhrs:id": "506523", "name": "A. Waller & Son", "opening_hours": "Mo-Fr 07:30-17:30, Sa 07:00-17:00", "phone": "+44 1223 350972", "shop": "butcher", "source:addr": "FHRS Open Data", "wheelchair": "yes"}}, {"type": "node", "id": 307757414, "lat": 52.220963, "lon": 0.1338119, "tags": {"addr:city": "Cambridge", "addr:housenumber": "1a", "addr:postcode": "CB4 2JB", "addr:street": "Arbury Road", "addr:unit": "1", "name": "Cambridge Quality Meats Ltd.", "note": "John Welton Proprietor.  Traditional Family and Catering Butchers.", "phone": "+44 1223 352853", "shop": "butcher", "source": "survey", "website": "http://www.cambridgequalitymeats.co.uk/"}}, {"type": "node", "id": 308920990, "lat": 53.8090249, "lon": -1.771823, "tags": {"shop": "butcher", "source": "knowledge"}}, {"type": "node", "id": 313692139, "lat": 51.1506087, "lon": 0.4003975, "tags": {"name": "Terry's Butchers", "phone": "+44 1892 723613", "shop": "butcher"}}, {"type": "node", "id": 314718112, "lat": 51.5785504, "lon": 0.1809341, "tags": {"addr:city": "Romford", "addr:housenumber": "2", "addr:postcode": "RM1 3ED", "addr:street": "Quadrant Arcade", "name": "Meat Express", "shop": "butcher", "source": "www.npemap.org.uk", "uk_postcode_centroid": "RM1"}}, {"type": "node", "id": 321492732, "lat": 54.4829373, "lon": -3.5280852, "tags": {"addr:city": "Egremont", "addr:street": "Main Street", "name": "R Wilson", "shop": "butcher"}}, {"type": "node", "id": 322618000, "lat": 51.9135641, "lon": -2.0431974, "tags": {"name": "Waghorne's Village Butchers", "phone": "+44 1242 244474", "shop": "butcher"}}, {"type": "node", "id": 322648579, "lat": 53.3895016, "lon": -1.4262057, "tags": {"name": "Rajah Bros", "shop": "butcher"}}, {"type": "node", "id": 322694931, "lat": 53.3863465, "lon": -1.4118847, "tags": {"name": "D. Willey", "shop": "butcher"}}, {"type": "node", "id": 324160527, "lat": 60.1571166, "lon": -1.1493235, "tags": {"name": "Anderson Globe", "shop": "butcher"}}, {"type": "node", "id": 325399329, "lat": 53.2269393, "lon": -0.5387043, "tags": {"shop": "butcher"}}, {"type": "node", "id": 329031787, "lat": 53.7415721, "lon": -2.0125053, "tags": {"shop": "butcher"}}, {"type": "node", "id": 330071199, "lat": 53.796424, "lon": -1.5931891, "tags": {"addr:city": "Leeds", "addr:housenumber": "89", "addr:postcode": "LS12 3HD", "addr:street": "Town Street", "fhrs:id": "320254", "name": "Skeltons", "shop": "butcher"}}, {"type": "node", "id": 330089343, "lat": 53.7969531, "lon": -1.5901745, "tags": {"addr:city": "Leeds", "addr:housenumber": "31-33", "addr:postcode": "LS12 1UX", "addr:street": "Town Street", "addr:suburb": "Armley", "fhrs:id": "322078", "name": "Wilson's", "shop": "butcher"}}, {"type": "node", "id": 335236410, "lat": 53.3870627, "lon": -2.6553465, "tags": {"created_by": "Potlatch 0.10f", "name": "Bernard Stretch Family Butcher", "operator": "private", "shop": "butcher"}}, {"type": "node", "id": 353040853, "lat": 50.8739154, "lon": 0.0158394, "tags": {"name": "Ben's Butchers", "shop": "butcher"}}, {"type": "node", "id": 356075697, "lat": 53.7854168, "lon": -1.6098329, "tags": {"addr:city": "Leeds", "addr:housenumber": "10", "addr:postcode": "LS12 5JG", "addr:street": "Whincover Drive", "addr:suburb": "Farnley", "name": "Terry's Star Butchers", "shop": "butcher", "source:addr": "FHRS Open Data"}}, {"type": "node", "id": 357632711, "lat": 57.2807923, "lon": -5.7152043, "tags": {"addr:postcode": "IV40 8AE", "addr:street": "Station Road", "contact:facebook": "https://www.facebook.com/lochalshbutchers.mallaig", "fhrs:id": "560724", "name": "Lochalsh Butchers", "shop": "butcher", "website": "http://lochalshbutchers.com/"}}, {"type": "node", "id": 360726020, "lat": 52.7112236, "lon": -2.7608777, "tags": {"name": "Phil Perks", "shop": "butcher"}}, {"type": "node", "id": 360790563, "lat": 52.6246391, "lon": -1.2159808, "tags": {"name": "Gordon Ragg", "shop": "butcher"}}, {"type": "node", "id": 360946527, "lat": 53.3276763, "lon": -1.4745285, "tags": {"name": "Meadowhead Meats", "shop": "butcher"}}, {"type": "node", "id": 361497454, "lat": 50.7211051, "lon": -3.5204852, "tags": {"name": "Piper's Farm", "shop": "butcher"}}, {"type": "node", "id": 365494854, "lat": 53.3677372, "lon": -1.4968181, "tags": {"addr:housenumber": "276", "addr:street": "Sharrow Vale Road", "contact:phone": "+44 114 2660 593", "name": "Roney's", "shop": "butcher", "website": "https://www.wedeliverlocal.co.uk/roneys-of-sheffield"}}, {"type": "node", "id": 369879708, "lat": 51.5612768, "lon": -0.0736912, "tags": {"addr:housenumber": "162-164", "name": "Akdeniz Balikcisi", "shop": "butcher"}}, {"type": "node", "id": 370168470, "lat": 53.3051598, "lon": -1.4674794, "tags": {"name": "Butlers", "shop": "butcher"}}, {"type": "node", "id": 370703186, "lat": 52.5364048, "lon": -1.8744124, "tags": {"name": "G. Preston", "shop": "butcher"}}, {"type": "node", "id": 370790999, "lat": 51.3661538, "lon": -2.8073013, "tags": {"shop": "butcher"}}, {"type": "node", "id": 373188737, "lat": 53.3495843, "lon": -1.3435221, "tags": {"name": "R. Smith & Sons", "shop": "butcher"}}, {"type": "node", "id": 379024045, "lat": 52.6400615, "lon": 1.5493607, "tags": {"addr:city": "Norwich", "addr:housenumber": "31", "addr:postcode": "NR13 3QL", "addr:street": "Old Road", "addr:town": "Acle", "fhrs:id": "96284", "name": "Carters Family Butcher", "shop": "butcher", "source:addr": "FHRS Open Data"}}, {"type": "node", "id": 379024049, "lat": 52.6388815, "lon": 1.5483394, "tags": {"shop": "butcher"}}, {"type": "node", "id": 382393557, "lat": 52.680756, "lon": 0.9416484, "tags": {"addr:housenumber": "14", "addr:postcode": "NR19 1EA", "addr:street": "Nelson Place", "fhrs:id": "832165", "name": "Terry's", "shop": "butcher", "source:addr": "FSA Food Hygiene Ratings Database"}}, {"type": "node", "id": 385186857, "lat": 52.3736502, "lon": -1.1223565, "tags": {"name": "Keith Hewitt", "shop": "butcher"}}, {"type": "node", "id": 386776394, "lat": 51.9531564, "lon": -2.8936144, "tags": {"name": "R.J. & R.B. Mailes", "shop": "butcher"}}, {"type": "node", "id": 390356900, "lat": 51.5367854, "lon": -0.0963779, "tags": {"name": "Ferretti", "shop": "butcher"}}, {"type": "node", "id": 390366807, "lat": 53.6801321, "lon": -1.3356171, "tags": {"addr:housename": "Ravensknowle Farm", "addr:postcode": "WF7 5AF", "addr:street": "Pontefract Road", "addr:town": "Featherstone", "fhrs:id": "284692", "name": "Farmer Copley's Farm Shop", "shop": "butcher"}}, {"type": "node", "id": 390440295, "lat": 53.3075063, "lon": -1.3652739, "tags": {"name": "The Butchers Shop", "shop": "butcher", "source:name": "Sign"}}, {"type": "node", "id": 390924597, "lat": 51.5384524, "lon": -0.142509, "tags": {"addr:city": "London", "addr:housenumber": "177", "addr:postcode": "NW1 7JY", "addr:street": "Camden High Street", "fhrs:id": "425580", "name": "Martin's Butchers", "shop": "butcher", "source:addr": "FSA Food Hygiene Rating Scheme open data", "wheelchair": "yes"}}, {"type": "node", "id": 392375067, "lat": 51.5077908, "lon": -0.2158116, "tags": {"name": "Nile Butchers", "shop": "butcher"}}, {"type": "node", "id": 393464343, "lat": 51.5688568, "lon": -0.1114608, "tags": {"addr:housenumber": "99", "name": "Farm Butcher Centre", "shop": "butcher"}}, {"type": "node", "id": 393511929, "lat": 52.5897491, "lon": -2.262224, "tags": {"addr:city": "Pattingham", "addr:housenumber": "10", "addr:postcode": "WV6 7AF", "addr:street": "Wolverhampton Road", "contact:phone": "+44 1902 700217", "contact:website": "http://www.martinthomasbutchers.com/", "name": "Martin Thomas Traditional Family Butcher", "shop": "butcher"}}, {"type": "node", "id": 402771153, "lat": 52.4530355, "lon": -2.0581733, "tags": {"name": "Don Guest and Son", "shop": "butcher", "source": "survey"}}, {"type": "node", "id": 406382340, "lat": 55.6515645, "lon": -2.2518787, "tags": {"name": "Graham Sanderson", "shop": "butcher"}}, {"type": "node", "id": 410936536, "lat": 51.5569386, "lon": -0.2158313, "tags": {"name": "Cricklewood Halal", "shop": "butcher"}}, {"type": "node", "id": 410952441, "lat": 51.5556705, "lon": -0.2138155, "tags": {"addr:housenumber": "130", "name": "Al Rahma Halal Meat & Poultry", "shop": "butcher", "wheelchair": "limited"}}, {"type": "node", "id": 415822145, "lat": 51.4876065, "lon": -0.1418649, "tags": {"addr:city": "London", "addr:housenumber": "117", "addr:postcode": "SW1V 3EN", "addr:street": "Lupus Street", "fhrs:confidence_management": "10", "fhrs:hygiene": "15", "fhrs:id": "413418", "fhrs:local_authority_id": "01180/0117/0/000", "fhrs:rating": "2", "fhrs:structural": "10", "name": "Freeman's Butchers", "shop": "butcher", "source:addr": "FSA Food Hygiene Ratings Database", "source:postcode": "FSA Food Hygiene Ratings Database"}}, {"type": "node", "id": 416491627, "lat": 52.645793, "lon": 1.731239, "tags": {"name": "Tubby's", "shop": "butcher"}}, {"type": "node", "id": 417047789, "lat": 51.5529687, "lon": -0.0443759, "tags": {"addr:housenumber": "46", "addr:street": "Chatsworth Road", "name": "Mighty Meats", "shop": "butcher"}}, {"type": "node", "id": 420692706, "lat": 52.3399721, "lon": -2.2790135, "tags": {"name": "Lawrence Gough", "shop": "butcher", "source": "survey"}}, {"type": "node", "id": 428843045, "lat": 52.1838148, "lon": 0.2211349, "tags": {"name": "Beaumont", "shop": "butcher"}}, {"type": "node", "id": 429650403, "lat": 54.2031771, "lon": -2.5980416, "tags": {"addr:city": "Kirkby Lonsdale", "addr:housenumber": "2", "addr:postcode": "LA6 2AU", "addr:street": "Market Street", "fhrs:id": "299675", "name": "Dales", "phone": "+44 15242 71278", "shop": "butcher", "website": "https://dalesbutchers.co.uk/"}}, {"type": "node", "id": 430364928, "lat": 52.7574328, "lon": 0.4191744, "tags": {"name": "Gitton", "shop": "butcher"}}, {"type": "node", "id": 433049569, "lat": 51.4557368, "lon": -2.1119231, "tags": {"addr:city": "Chippenham", "addr:housenumber": "32", "addr:postcode": "SN15 3DB", "addr:street": "The Causeway", "name": "John Iles & Son", "shop": "butcher"}}, {"type": "node", "id": 441205302, "lat": 51.4579388, "lon": -0.1661051, "tags": {"addr:city": "London", "addr:country": "GB", "addr:housenumber": "80", "addr:postcode": "SW11 6QN", "addr:street": "Northcote Road", "fhrs:id": "296500", "name": "Hennessy's", "shop": "butcher"}}, {"type": "node", "id": 443655260, "lat": 51.6456331, "lon": -3.2215351, "tags": {"shop": "butcher"}}, {"type": "node", "id": 447082125, "lat": 52.6023275, "lon": 0.3766595, "tags": {"name": "John's", "shop": "butcher"}}, {"type": "node", "id": 447261601, "lat": 52.5596238, "lon": 0.3896226, "tags": {"name": "A.J. Dent", "shop": "butcher"}}, {"type": "node", "id": 453661635, "lat": 52.4386097, "lon": -1.9405651, "tags": {"name": "Berry Brothers", "shop": "butcher", "source": "survey"}}, {"type": "node", "id": 455193176, "lat": 51.9025612, "lon": 0.1997951, "tags": {"name": "Kings Family Butchers", "shop": "butcher"}}, {"type": "node", "id": 456891121, "lat": 51.5088069, "lon": -3.132425, "tags": {"name": "The Orchard", "shop": "butcher", "source": "local_knowledge"}}, {"type": "node", "id": 457896460, "lat": 51.5136319, "lon": -3.1290973, "tags": {"name": "Direct Meat", "shop": "butcher"}}, {"type": "node", "id": 458259762, "lat": 51.386575, "lon": -0.4066392, "tags": {"shop": "butcher"}}, {"type": "node", "id": 459279748, "lat": 52.4392567, "lon": -1.9398003, "tags": {"name": "S.R. Checketts Catering Butcher", "shop": "butcher"}}, {"type": "node", "id": 469245181, "lat": 53.4163394, "lon": -2.7655954, "tags": {"addr:housenumber": "576", "addr:postcode": "L35 4LZ", "addr:street": "Warrington Road", "name": "J Showering Butchers", "phone": "+44 151 426 4604", "shop": "butcher"}}, {"type": "node", "id": 469489880, "lat": 52.7378687, "lon": -1.5602278, "tags": {"addr:housenumber": "69", "addr:postcode": "DE12 6LU", "addr:street": "Woodville Road", "name": "C.H. Staley", "shop": "butcher", "source": "survey"}}, {"type": "node", "id": 471248130, "lat": 50.8807844, "lon": -1.8793783, "tags": {"shop": "butcher"}}, {"type": "node", "id": 472446510, "lat": 51.571148, "lon": -0.022519, "tags": {"addr:city": "London", "addr:housenumber": "404", "addr:postcode": "E10 7DY", "addr:street": "Lea Bridge Road", "addr:suburb": "Leyton", "butcher": "halal", "diet:halal": "yes", "fhrs:id": "610699", "fhrs:local_authority_id": "66431", "name": "Dial Halal", "operator": "Dial Halal Ltd", "shop": "butcher", "source:addr": "FHRS Open Data"}}, {"type": "node", "id": 473728916, "lat": 52.3321803, "lon": 0.338401, "tags": {"name": "Top Notch Meats", "shop": "butcher"}}, {"type": "node", "id": 476028560, "lat": 51.5045823, "lon": -3.1269865, "tags": {"name": "Lee's Butchers", "shop": "butcher"}}, {"type": "node", "id": 476932138, "lat": 57.4832705, "lon": -4.4595876, "tags": {"addr:city": "Beauly", "addr:housename": "3", "addr:postcode": "IV4 7BX", "addr:street": "The Square", "fhrs:id": "560660", "name": "John M. Munro Ltd", "shop": "butcher"}}, {"type": "node", "id": 480318712, "lat": 50.8724478, "lon": -1.5741925, "tags": {"shop": "butcher"}}, {"type": "node", "id": 480475347, "lat": 51.2684605, "lon": -1.0398426, "tags": {"name": "Glaysher Family Butchers", "shop": "butcher"}}, {"type": "node", "id": 485199951, "lat": 51.8666368, "lon": -0.1839093, "tags": {"name": "Trussels", "shop": "butcher"}}, {"type": "node", "id": 486270588, "lat": 54.0686727, "lon": -2.2764191, "tags": {"addr:city": "Settle", "addr:country": "GB", "addr:postcode": "BD24 9EJ", "addr:street": "Market Place", "fhrs:id": "292785", "name": "Drake & Macefield", "shop": "butcher", "source:addr": "FHRS Open Data"}}, {"type": "node", "id": 493380053, "lat": 51.5182907, "lon": -0.9777618, "tags": {"name": "Carl Woods", "shop": "butcher"}}, {"type": "node", "id": 494343807, "lat": 58.2084206, "lon": -6.3875774, "tags": {"addr:postcode": "HS1 2XD", "facebook": "https://www.facebook.com/wjmacdonalds/", "fhrs:id": "806715", "name": "W J Macdonald", "shop": "butcher"}}, {"type": "node", "id": 494519426, "lat": 52.6389959, "lon": -1.9402822, "tags": {"name": "Edmund Howdle", "shop": "butcher"}}, {"type": "node", "id": 497392239, "lat": 53.836071, "lon": -1.7930488, "tags": {"addr:city": "Shipley", "addr:country": "GB", "addr:housenumber": "14", "addr:postcode": "BD18 4LZ", "addr:street": "Katherine Street", "addr:village": "Saltaire", "name": "Sutcliffe's", "opening_hours": "Mo 08:00-16:00; We-Fr 08:00-16:30; Sa 08:00-13:00", "shop": "butcher"}}, {"type": "node", "id": 503694396, "lat": 51.2622054, "lon": -2.1833233, "tags": {"addr:housenumber": "18", "addr:street": "Maristow Street", "name": "C. Linham Butcher", "opening_hours": "Mo 08:00-13:00; Tu 08:00-17:00; We 08:00-13:00; Th-Fr 08:00-17:00; Sa 08:00-16:00; Su off", "shop": "butcher"}}, {"type": "node", "id": 513896539, "lat": 57.1897687, "lon": -3.8289253, "tags": {"name": "Frasers Butchers", "shop": "butcher"}}, {"type": "node", "id": 521355680, "lat": 51.1752425, "lon": 0.7537124, "tags": {"name": "Pluckley Butchers", "phone": "+44 1233 840221", "shop": "butcher"}}, {"type": "node", "id": 522420733, "lat": 52.1645544, "lon": -1.8563687, "tags": {"addr:city": "Bidford on Avon", "addr:housenumber": "1", "addr:postcode": "B50 4AB", "addr:street": "Saxon Court", "fhrs:id": "502680", "name": "Sebastian's Butchery", "shop": "butcher"}}, {"type": "node", "id": 528693113, "lat": 54.6561797, "lon": -1.1952707, "tags": {"addr:street": "Elizabeth Way", "name": "Gordon Snowdon", "shop": "butcher"}}, {"type": "node", "id": 528869645, "lat": 52.2971639, "lon": -0.3868044, "tags": {"name": "H Hallett", "shop": "butcher", "toilets:wheelchair": "no", "wheelchair": "limited"}}, {"type": "node", "id": 528870089, "lat": 52.2681764, "lon": -0.343755, "tags": {"name": "G M Gilbert", "shop": "butcher"}}, {"type": "node", "id": 531644156, "lat": 50.371495, "lon": -4.1537856, "tags": {"shop": "butcher"}}, {"type": "node", "id": 537015137, "lat": 55.5920451, "lon": -4.4873819, "tags": {"accuracy": "13 feet", "addr:city": "Kilmarnock", "addr:country": "GB", "addr:housenumber": "81b", "addr:postcode": "KA1 3RB", "addr:street": "Whatriggs Road", "name": "William Luke & Son", "shop": "butcher"}}, {"type": "node", "id": 542320156, "lat": 54.1167173, "lon": -0.1238759, "tags": {"name": "Burndales Joint", "shop": "butcher", "source": "survey"}}, {"type": "node", "id": 544857819, "lat": 51.4141265, "lon": -0.0520988, "tags": {"addr:city": "Penge", "addr:street": "High Street", "name": "Murray Bros Butchers", "shop": "butcher"}}, {"type": "node", "id": 548222278, "lat": 51.538621, "lon": -0.0987046, "tags": {"addr:housenumber": "96", "addr:street": "Essex road", "name": "James Elliot Master Butcher", "phone": "+44 2072263658", "shop": "butcher"}}, {"type": "node", "id": 550688375, "lat": 53.3561289, "lon": -3.0239527, "tags": {"name": "Whieldons Butchers", "shop": "butcher"}}, {"type": "node", "id": 557198726, "lat": 51.4343303, "lon": 0.1775722, "tags": {"addr:postcode": "DA2 7WX", "addr:street": "Maplehurst Close", "fhrs:id": "10416", "name": "Dennis of Bexley", "shop": "butcher", "source:addr": "FHRS Open Data"}}, {"type": "node", "id": 564160740, "lat": 51.4237315, "lon": 0.1713897, "tags": {"addr:housenumber": "9", "addr:postcode": "DA2 7NJ", "addr:street": "Birchwood Parade", "fhrs:id": "13363", "name": "S Clark", "shop": "butcher", "source:addr": "FHRS Open Data"}}, {"type": "node", "id": 564725663, "lat": 52.4381351, "lon": -1.9279433, "tags": {"addr:city": "Birmingham", "addr:housenumber": "67", "addr:street": "Raddlebarn Road", "name": "G.A. Lockhart", "shop": "butcher"}}, {"type": "node", "id": 564876782, "lat": 52.4242589, "lon": -1.9341164, "tags": {"addr:city": "Birmingham", "addr:housenumber": "247", "addr:street": "Mary Vale Road", "name": "Organic Butcher", "shop": "butcher"}}, {"type": "node", "id": 565476816, "lat": 51.7463478, "lon": -1.2332116, "tags": {"addr:housenumber": "224", "addr:street": "Cowley Road", "name": "Alder's Butchers", "shop": "butcher"}}, {"type": "node", "id": 569115771, "lat": 51.3265382, "lon": -0.6390019, "tags": {"name": "Blue Rock", "shop": "butcher"}}, {"type": "node", "id": 569524967, "lat": 52.6418436, "lon": 0.2080196, "tags": {"addr:city": "Wisbech", "addr:housenumber": "18", "addr:postcode": "PE14 8DD", "addr:street": "Gaultree Square", "addr:village": "Emneth", "fhrs:id": "87830", "name": "Curtis", "shop": "butcher", "source:addr": "FHRS Open Data"}}, {"type": "node", "id": 569732037, "lat": 52.4297153, "lon": -1.934958, "tags": {"addr:city": "Birmingham", "addr:housenumber": "39", "addr:street": "Sycamore Road", "name": "Russel's", "shop": "butcher"}}, {"type": "node", "id": 577499950, "lat": 52.8146878, "lon": -2.1223432, "tags": {"addr:housenumber": "49", "addr:postcode": "ST16 2RG", "addr:street": "Greyfriars", "fhrs:id": "386865", "name": "Beez Family Butchers", "opening_hours": "Mo 07:30-15:00; Tu 07:30-17:00; We 07:30-13:30; Th-Fr 07:30-17:30; Sa 07:00-16:00", "shop": "butcher", "source:addr": "FHRS Open Data"}}, {"type": "node", "id": 579986324, "lat": 51.2329493, "lon": 0.4940506, "tags": {"addr:housenumber": "101", "addr:place": "Coxheath", "addr:postcode": "ME17 4EH", "addr:province": "Kent", "addr:street": "Heath Road", "fhrs:authority": "Maidstone", "fhrs:id": "721696", "fhrs:inspectiondate": "2016-12-30", "fhrs:rating": "5", "name": "Woods Fresh Foods", "shop": "butcher"}}, {"type": "node", "id": 581285891, "lat": 51.7129261, "lon": -5.0307008, "tags": {"shop": "butcher"}}, {"type": "node", "id": 581973484, "lat": 52.5924, "lon": -1.973026, "tags": {"name": "W T Hill & Son", "shop": "butcher"}}, {"type": "node", "id": 582292509, "lat": 53.7673593, "lon": -1.0891244, "tags": {"name": "C Dawson & Son", "shop": "butcher"}}, {"type": "node", "id": 584987291, "lat": 55.5467739, "lon": -2.8417824, "tags": {"name": "Halliwells", "shop": "butcher"}}, {"type": "node", "id": 587733010, "lat": 51.9944127, "lon": -0.7312901, "tags": {"addr:city": "Milton Keynes", "addr:country": "GB", "addr:housenumber": "100", "addr:postcode": "MK2 2RU", "addr:street": "Queensway", "addr:suburb": "Bletchley", "fhrs:id": "199273", "fhrs:local_authority_id": "29231", "name": "Meat World", "shop": "butcher"}}, {"type": "node", "id": 587733421, "lat": 51.9947723, "lon": -0.7305661, "tags": {"addr:city": "Milton Keynes", "addr:country": "GB", "addr:housenumber": "75-77", "addr:postcode": "MK2 2DW", "addr:street": "Queensway", "addr:suburb": "Bletchley", "fhrs:authority": "Milton Keynes", "fhrs:id": "198692", "fhrs:local_authority_id": "51456", "name": "Palmers Family Butchers", "shop": "butcher"}}, {"type": "node", "id": 588498442, "lat": 55.9713482, "lon": -3.1729206, "tags": {"addr:housenumber": "44", "addr:street": "Great Junction Street", "name": "George Bowman", "shop": "butcher", "source": "survey"}}, {"type": "node", "id": 588502835, "lat": 51.6313766, "lon": -0.5704602, "tags": {"addr:city": "Chalfont St Giles", "addr:postcode": "HP8 4QH", "addr:street": "High Street", "fhrs:id": "356268", "fhrs:local_authority_id": "12/00012/FRET", "name": "A Warner", "shop": "butcher", "source:addr": "FHRS Open Data", "website": "http://warnermeats.com/"}}, {"type": "node", "id": 599596570, "lat": 51.1374543, "lon": 0.8575713, "tags": {"name": "Marlow Butchers", "shop": "butcher"}}, {"type": "node", "id": 602221012, "lat": 52.3993308, "lon": 0.2639294, "tags": {"name": "Edis of Ely", "shop": "butcher", "wheelchair": "no"}}, {"type": "node", "id": 602221015, "lat": 52.3992423, "lon": 0.2660901, "tags": {"name": "Bent and Cornwell", "shop": "butcher", "toilets:wheelchair": "no", "wheelchair": "yes"}}, {"type": "node", "id": 606181157, "lat": 51.2239246, "lon": -0.2001221, "tags": {"name": "Craig Best", "phone": "+44 1737 223352", "shop": "butcher", "wheelchair": "yes"}}, {"type": "node", "id": 608592567, "lat": 51.5679624, "lon": 0.0084329, "tags": {"addr:city": "London", "addr:housenumber": "32", "addr:postcode": "E11 1HG", "addr:street": "Church Lane", "name": "K. Rayner & Sons", "shop": "butcher", "source:addr": "FHRS Open Data"}}, {"type": "node", "id": 610977283, "lat": 51.4319273, "lon": -2.1853498, "tags": {"addr:city": "Corsham", "addr:housenumber": "32", "addr:postcode": "SN13 0HB", "addr:street": "High Street", "name": "R & J M Artingstall Ltd", "ref": "Telephone 01249 713253", "shop": "butcher"}}, {"type": "node", "id": 615771362, "lat": 53.8339204, "lon": -1.0585013, "tags": {"shop": "butcher"}}, {"type": "node", "id": 619466288, "lat": 56.5907568, "lon": -3.3413333, "tags": {"name": "Irvines", "shop": "butcher"}}, {"type": "node", "id": 620078033, "lat": 52.3594068, "lon": -1.2912958, "tags": {"addr:city": "Rugby", "addr:country": "GB", "addr:housenumber": "14", "addr:place": "Bilton", "addr:postcode": "CV22 7LY", "addr:street": "The Green", "fhrs:authority": "Rugby", "fhrs:id": "210635", "name": "John Cleaver", "shop": "butcher", "source:addr": "FHRS Open Data", "toilets:wheelchair": "no", "wheelchair": "no"}}, {"type": "node", "id": 621810113, "lat": 52.2912828, "lon": -1.2079888, "tags": {"addr:city": "Daventry", "addr:country": "GB", "addr:housenumber": "25", "addr:place": "Braunston", "addr:postcode": "NN11 7HR", "addr:street": "High Street", "fhrs:authority": "Daventry", "fhrs:id": "160870", "fhrs:local_authority_id": "PI/000000736", "name": "Braunston Family Butcher", "shop": "butcher"}}, {"type": "node", "id": 630651215, "lat": 53.0475964, "lon": -2.9973054, "tags": {"addr:housenumber": "13", "addr:street": "King Street", "name": "First Class Meats", "shop": "butcher"}}, {"type": "node", "id": 631449733, "lat": 51.5484492, "lon": -0.1278868, "tags": {"name": "Cramers Butchers", "shop": "butcher"}}, {"type": "node", "id": 632910561, "lat": 52.6013302, "lon": 0.216982, "tags": {"name": "J D Spikings & Son", "shop": "butcher"}}, {"type": "node", "id": 634361317, "lat": 53.7752581, "lon": -0.3034899, "tags": {"name": "Moorfields", "shop": "butcher"}}, {"type": "node", "id": 634898728, "lat": 52.6581006, "lon": 0.0236311, "tags": {"name": "Tan Rose & Son", "shop": "butcher"}}, {"type": "node", "id": 635298321, "lat": 56.4496542, "lon": -2.8811201, "tags": {"name": "Marzipans Meats Ltd", "shop": "butcher"}}, {"type": "node", "id": 639133501, "lat": 51.7245709, "lon": -1.1990172, "tags": {"name": "J. E. Pill & Son", "shop": "butcher"}}, {"type": "node", "id": 649763893, "lat": 51.9084264, "lon": 0.0241408, "tags": {"name": "D White", "shop": "butcher"}}, {"type": "node", "id": 651486660, "lat": 51.4765628, "lon": -3.2548316, "tags": {"name": "Williams Family Butchers", "shop": "butcher"}}, {"type": "node", "id": 652802616, "lat": 51.9185762, "lon": -0.1793558, "tags": {"name": "K. Jones & Son", "shop": "butcher"}}, {"type": "node", "id": 653383208, "lat": 53.884098, "lon": -2.5769951, "tags": {"name": "Robinson Bros", "shop": "butcher"}}, {"type": "node", "id": 658618242, "lat": 53.7681698, "lon": -2.4154691, "tags": {"shop": "butcher"}}, {"type": "node", "id": 658958405, "lat": 51.554557, "lon": -0.0749119, "tags": {"addr:housenumber": "101", "name": "Pak Butchers", "shop": "butcher"}}, {"type": "node", "id": 659018178, "lat": 53.7861821, "lon": -2.4055966, "tags": {"landuse": "retail", "name": "J Metcalfe Butcher", "shop": "butcher"}}, {"type": "node", "id": 660191081, "lat": 53.7765556, "lon": -2.3884816, "tags": {"name": "B. Hodder", "shop": "butcher"}}, {"type": "node", "id": 662441234, "lat": 53.7713869, "lon": -1.721666, "tags": {"name": "Chelwood Butchers", "shop": "butcher"}}, {"type": "node", "id": 663641336, "lat": 51.7796562, "lon": -1.266002, "tags": {"name": "Alcock's family butchers", "phone": "+44 1865 515658", "shop": "butcher", "source": "photograph"}}, {"type": "node", "id": 666979418, "lat": 52.9710161, "lon": -2.9346681, "tags": {"shop": "butcher"}}, {"type": "node", "id": 670443198, "lat": 52.9879062, "lon": -1.9854205, "tags": {"name": "morrisons", "shop": "butcher"}}, {"type": "node", "id": 670846670, "lat": 52.144372, "lon": -0.4744587, "tags": {"addr:housenumber": "68", "addr:postcode": "MK41 7RU", "addr:street": "Stanley Street", "fhrs:id": "100716", "name": "David Jon Butchers", "shop": "butcher"}}, {"type": "node", "id": 677716682, "lat": 54.3381042, "lon": -1.4335058, "tags": {"name": "Thompsons Butchers", "shop": "butcher"}}, {"type": "node", "id": 681284244, "lat": 51.7285117, "lon": 0.4223556, "tags": {"shop": "butcher"}}, {"type": "node", "id": 688111741, "lat": 54.4713411, "lon": -0.6294259, "tags": {"addr:street": "High Street", "designation": "Butchers Shop", "name": "Jackson's Butchers", "operator": "Jackson's Butchers", "shop": "butcher", "website": "http://www.gourmetbritain.com/shops_entry.php?item=5422"}}, {"type": "node", "id": 692127382, "lat": 51.374039, "lon": 0.4539533, "tags": {"name": "G & M Robinson Family Butcher", "shop": "butcher"}}, {"type": "node", "id": 693738052, "lat": 53.5235335, "lon": -2.4945216, "tags": {"shop": "butcher"}}, {"type": "node", "id": 697306806, "lat": 53.8717631, "lon": -2.3922044, "tags": {"name": "Cowmans", "shop": "butcher", "wheelchair": "limited"}}, {"type": "node", "id": 703219706, "lat": 53.8706414, "lon": -2.3867739, "tags": {"name": "Alpes the Butchers", "shop": "butcher"}}, {"type": "node", "id": 705975315, "lat": 53.4525255, "lon": -2.3920273, "tags": {"name": "High Class Butchers", "phone": "+44 161 748 6351", "shop": "butcher"}}, {"type": "node", "id": 712713026, "lat": 53.4487784, "lon": -2.3751793, "tags": {"name": "P.J. Howarth & Son", "phone": "+44 161 748 0199", "shop": "butcher"}}, {"type": "node", "id": 717882690, "lat": 55.6807063, "lon": -4.5143373, "tags": {"name": "Wm Allan & Son", "shop": "butcher"}}, {"type": "node", "id": 727683849, "lat": 51.5222362, "lon": -1.1364439, "tags": {"addr:housenumber": "5", "addr:postcode": "RG8 9AY", "addr:street": "The Arcade", "amenity": "shop", "name": "Goring Village Butchers", "shop": "butcher"}}, {"type": "node", "id": 734900655, "lat": 52.9615719, "lon": -1.2000418, "tags": {"addr:housenumber": "431", "addr:postcode": "NG8 3LF", "addr:street": "Beechdale Road", "fhrs:id": "217443", "name": "G. Kemp and Son", "not:nccod:addr:housenumber": "431", "shop": "butcher", "source": "survey"}}, {"type": "node", "id": 743051272, "lat": 55.0560554, "lon": -1.5939422, "tags": {"name": "Family Butchers", "shop": "butcher"}}, {"type": "node", "id": 746858464, "lat": 54.3691908, "lon": -3.0750105, "tags": {"addr:city": "Coniston", "addr:housename": "Kirkdale House", "addr:postcode": "LA21 8ED", "addr:street": "Tilberthwaite Avenue", "fhrs:id": "299685", "name": "W F Hutchinson", "shop": "butcher", "source": "survey"}}, {"type": "node", "id": 756960103, "lat": 51.5597601, "lon": -1.7852892, "tags": {"shop": "butcher"}}, {"type": "node", "id": 759818326, "lat": 51.5730006, "lon": -0.0897867, "tags": {"addr:housenumber": "113", "fixme": "is this still here?", "name": "Kasap Niyaz", "phone": "+44 20 8802 3519", "shop": "butcher"}}, {"type": "node", "id": 763067845, "lat": 54.5388677, "lon": -1.2911031, "tags": {"name": "Roberts Family Butchers", "shop": "butcher"}}, {"type": "node", "id": 763456859, "lat": 54.7166769, "lon": -1.5044111, "tags": {"ele": "95.0554199", "name": "Coates & Son", "shop": "butcher"}}, {"type": "node", "id": 763471566, "lat": 51.8420483, "lon": -0.1944403, "tags": {"name": "Gareth's Butchers", "shop": "butcher"}}, {"type": "node", "id": 770109361, "lat": 55.1322521, "lon": -6.6784635, "tags": {"name": "Mullan's", "shop": "butcher"}}, {"type": "node", "id": 775578692, "lat": 55.0471857, "lon": -1.6258522, "tags": {"name": "Millers Family Butchers", "shop": "butcher"}}, {"type": "node", "id": 778525917, "lat": 54.9938849, "lon": -7.3457098, "tags": {"name": "Sean's Butchers", "shop": "butcher"}}, {"type": "node", "id": 788576113, "lat": 53.4359862, "lon": -1.3556318, "tags": {"name": "Underwood Meats", "shop": "butcher"}}, {"type": "node", "id": 789068052, "lat": 54.5460553, "lon": -1.5478916, "tags": {"name": "Fenwick's", "shop": "butcher"}}, {"type": "node", "id": 792643587, "lat": 52.4226566, "lon": -1.8363793, "tags": {"name": "Keith Emery Butcher", "shop": "butcher", "source": "survey"}}, {"type": "node", "id": 794051348, "lat": 56.4674222, "lon": -2.8758364, "tags": {"name": "Scott Brothers", "shop": "butcher"}}, {"type": "node", "id": 795226559, "lat": 53.3240301, "lon": -1.1686146, "tags": {"shop": "butcher"}}, {"type": "node", "id": 806483335, "lat": 53.3673575, "lon": -1.5015999, "tags": {"name": "Ralph Thickitt", "shop": "butcher"}}, {"type": "node", "id": 806720975, "lat": 51.5298678, "lon": -3.208868, "tags": {"shop": "butcher"}}, {"type": "node", "id": 808272109, "lat": 52.9788939, "lon": -2.1025676, "tags": {"name": "Parker's of Meir", "shop": "butcher"}}, {"type": "node", "id": 813423534, "lat": 52.3911883, "lon": -1.8793012, "tags": {"name": "Honnor Butcher", "shop": "butcher", "source": "survey"}}, {"type": "node", "id": 813904386, "lat": 52.4294425, "lon": -1.797934, "tags": {"name": "Dovehouse Butchers", "shop": "butcher", "source": "survey"}}, {"type": "node", "id": 817065027, "lat": 51.6182129, "lon": -4.0182494, "tags": {"addr:housenumber": "7", "addr:postcode": "SA2 7BA", "addr:street": "The Precinct", "fhrs:id": "91422", "name": "The Prime Cut", "shop": "butcher"}}, {"type": "node", "id": 818092346, "lat": 52.7712815, "lon": -1.2052075, "tags": {"addr:city": "Loughborough", "addr:housenumber": "26-27", "addr:postcode": "LE11 2PZ", "addr:street": "High Street", "name": "Brookes Butchers", "old_name": "Purple Pig", "shop": "butcher", "source": "Site Survey", "wheelchair": "limited"}}, {"type": "node", "id": 819634007, "lat": 55.8689421, "lon": -4.0435491, "tags": {"shop": "butcher"}}, {"type": "node", "id": 823485337, "lat": 51.1273335, "lon": 1.3102384, "tags": {"addr:city": "Dover", "addr:country": "GB", "addr:county": "Kent", "addr:housenumber": "8", "addr:postcode": "CT16 1BD", "addr:street": "Biggin Street", "name": "JC Rook and Sons", "shop": "butcher"}}, {"type": "node", "id": 823517759, "lat": 52.7585921, "lon": -1.2067312, "tags": {"name": "Eric Oakland & Son", "shop": "butcher", "source": "Site Survey"}}, {"type": "node", "id": 824607713, "lat": 52.4212641, "lon": -1.7659477, "tags": {"name": "Wadlee Hughes", "shop": "butcher", "source": "survey"}}, {"type": "node", "id": 824697823, "lat": 52.4147258, "lon": -1.8089476, "tags": {"name": "Browns of Solihull", "shop": "butcher", "source": "survey"}}, {"type": "node", "id": 825137963, "lat": 52.6398877, "lon": -2.9264199, "tags": {"name": "Smith's of Minsterley", "opening_hours": "Tu 09:30-17:00; We-Fr 08:30-17:00; Sa 08:30-13:00", "shop": "butcher"}}, {"type": "node", "id": 834267599, "lat": 54.3768209, "lon": -2.8163907, "tags": {"addr:city": "Staveley", "addr:housenumber": "12", "addr:postcode": "LA8 9LN", "addr:street": "Main Street", "fhrs:id": "328914", "name": "Haytons Butchers", "phone": "+44 1539 821363", "shop": "butcher"}}, {"type": "node", "id": 835065384, "lat": 52.4558437, "lon": -1.8764877, "tags": {"addr:city": "Birmingham", "addr:street": "Ladypool Road", "name": "Sheikh Hameed & Sons", "shop": "butcher", "source": "survey"}}, {"type": "node", "id": 835065399, "lat": 52.4588354, "lon": -1.8765747, "tags": {"name": "Bangla Bazaar", "shop": "butcher", "source": "survey"}}, {"type": "node", "id": 835909442, "lat": 51.3577815, "lon": -0.2176347, "tags": {"name": "S M Pinegar", "shop": "butcher"}}, {"type": "node", "id": 836425128, "lat": 53.8418723, "lon": -0.4283274, "tags": {"name": "Country Butchers", "shop": "butcher"}}, {"type": "node", "id": 848697033, "lat": 52.4046366, "lon": -1.8431338, "tags": {"name": "J Hughes", "shop": "butcher", "source": "survey"}}, {"type": "node", "id": 848804013, "lat": 50.7288934, "lon": -1.9424931, "tags": {"addr:city": "Poole", "addr:street": "Ashley Road", "name": "Terry's", "shop": "butcher", "wheelchair": "yes"}}, {"type": "node", "id": 851221717, "lat": 54.3497145, "lon": -6.2696687, "tags": {"name": "Fred Elliott's Delicatessen", "shop": "butcher"}}, {"type": "node", "id": 853921401, "lat": 52.0173177, "lon": -0.2292391, "tags": {"amenity": "shop", "name": "Beale Bros", "shop": "butcher"}}, {"type": "node", "id": 857695363, "lat": 51.5801609, "lon": -0.0993224, "tags": {"name": "Baldwins", "shop": "butcher"}}, {"type": "node", "id": 858031390, "lat": 52.4710513, "lon": -1.829739, "tags": {"name": "Mustafa Halal Meat & Poultry", "shop": "butcher", "source": "survey"}}, {"type": "node", "id": 864934136, "lat": 57.1493289, "lon": -2.1223056, "tags": {"addr:housenumber": "277", "addr:postcode": "AB25 2YB", "addr:street": "Rosemount Place", "alt_name": "A W Herd & Sons Ltd", "fhrs:id": "143164", "name": "Herd's", "note": "addr already present before fhrs but fhrs provides confirmation", "shop": "butcher", "source:addr": "fhrs", "source:alt_name": "fhrs", "wheelchair": "no"}}, {"type": "node", "id": 868882143, "lat": 51.3064263, "lon": -0.8993978, "tags": {"name": "Hartley Wintney Butchers", "shop": "butcher"}}, {"type": "node", "id": 871851963, "lat": 50.8288694, "lon": -0.485098, "tags": {"addr:street": "Arundel road", "name": "Meat in the Square ... and More", "shop": "butcher"}}, {"type": "node", "id": 872399543, "lat": 53.7825013, "lon": -1.8218449, "tags": {"ele": "235.6", "name": "John R. Summers", "shop": "butcher"}}, {"type": "node", "id": 883100911, "lat": 51.8593624, "lon": -0.1158111, "tags": {"name": "RH Newman", "phone": "+44 1920 830240", "shop": "butcher"}}, {"type": "node", "id": 885889604, "lat": 52.465705, "lon": -1.8917619, "tags": {"name": "S & K Halal Meat", "shop": "butcher", "source": "survey"}}, {"type": "node", "id": 894147087, "lat": 52.6433919, "lon": -1.7017466, "tags": {"name": "G & B Arnold", "shop": "butcher", "source": "survey"}}, {"type": "node", "id": 900302265, "lat": 52.4067663, "lon": -1.8873006, "tags": {"shop": "butcher", "source": "survey"}}, {"type": "node", "id": 908419945, "lat": 51.5006561, "lon": -0.0984237, "tags": {"addr:city": "London", "addr:country": "GB", "addr:housenumber": "156", "addr:postcode": "SE1 1PE", "addr:street": "Great Suffolk Street", "name": "Suffolk Meats", "shop": "butcher"}}, {"type": "node", "id": 914742797, "lat": 51.581447, "lon": -0.6665782, "tags": {"name": "Castlemans Farm Shop", "shop": "butcher"}}, {"type": "node", "id": 916895148, "lat": 52.4288466, "lon": -1.8697367, "tags": {"level": "0", "name": "hafiz Halal Meat Centre", "shop": "butcher", "source": "survey", "wheelchair": "yes"}}, {"type": "node", "id": 918948808, "lat": 51.5257288, "lon": -0.1787385, "tags": {"amenity": "shopping", "name": "Sheepdrove Organic Farm", "shop": "butcher", "url": "http://www.sheepdrove.com"}}, {"type": "node", "id": 930252054, "lat": 53.2355298, "lon": -1.4398531, "tags": {"fixme": "FHRS has cafe Enjoy", "name": "Neil Read", "shop": "butcher"}}, {"type": "node", "id": 941407346, "lat": 54.575823, "lon": -1.2391111, "tags": {"shop": "butcher", "source": "survey", "wheelchair": "yes"}}, {"type": "node", "id": 944574164, "lat": 52.7009106, "lon": -2.5193832, "tags": {"name": "Ken Francis Butchers", "shop": "butcher"}}, {"type": "node", "id": 946251937, "lat": 53.4164432, "lon": -2.4346728, "tags": {"name": "Catering Butchers", "phone": "+44 161 775 3103", "shop": "butcher"}}, {"type": "node", "id": 948686046, "lat": 55.01916, "lon": -7.3413699, "tags": {"name": "Kieran's Butchers", "shop": "butcher"}}, {"type": "node", "id": 951962081, "lat": 55.0373343, "lon": -1.4712159, "tags": {"name": "G.W. Ewen", "shop": "butcher"}}, {"type": "node", "id": 955903608, "lat": 51.27529, "lon": -0.7472356, "tags": {"shop": "butcher"}}, {"type": "node", "id": 960852093, "lat": 52.7790436, "lon": -2.2646322, "tags": {"addr:housenumber": "106", "addr:postcode": "ST20 0DA", "addr:street": "Wharf Road", "fhrs:id": "386731", "name": "Gnosall Family Butchers", "shop": "butcher", "source:addr": "FHRS Open Data"}}, {"type": "node", "id": 960936414, "lat": 54.178943, "lon": -6.337878, "tags": {"name": "Bill Baird's", "shop": "butcher"}}, {"type": "node", "id": 963528799, "lat": 53.1383205, "lon": -1.55592, "tags": {"name": "Wilsons", "shop": "butcher", "source": "survey"}}, {"type": "node", "id": 963528841, "lat": 53.1438723, "lon": -1.556835, "tags": {"addr:city": "Matlock", "addr:housenumber": "154", "addr:postcode": "DE4 3JA", "addr:street": "Smedley Street", "fhrs:id": "258440", "name": "White Peak Farm Butchery", "shop": "butcher", "source": "survey", "toilets:wheelchair": "no", "wheelchair": "no"}}, {"type": "node", "id": 966191972, "lat": 53.6805673, "lon": -1.7003894, "tags": {"name": "Shaun J. Fairweather", "phone": "+44 1924 493664", "shop": "butcher", "source": "photo"}}, {"type": "node", "id": 967453742, "lat": 51.8064787, "lon": -0.7846427, "tags": {"name": "Tilbury's", "shop": "butcher"}}, {"type": "node", "id": 976534551, "lat": 52.4577154, "lon": -1.8904672, "tags": {"shop": "butcher", "source": "survey"}}, {"type": "node", "id": 976746280, "lat": 51.2299483, "lon": -0.2852852, "tags": {"name": "J Chitty & Son", "shop": "butcher"}}, {"type": "node", "id": 1000137540, "lat": 50.4792982, "lon": -4.5306195, "tags": {"name": "Cornish Country Meats", "shop": "butcher"}}, {"type": "node", "id": 1001251439, "lat": 51.4014991, "lon": 0.5009326, "tags": {"addr:city": "Rochester", "addr:country": "GB", "addr:housenumber": "94", "addr:place": "Strood", "addr:postcode": "ME2 4HY", "addr:street": "Frindsbury Road", "fhrs:authority": "Medway", "fhrs:id": "609871", "fhrs:inspectiondate": "2016-11-21", "fhrs:rating": "4", "name": "Denis Hills Butchers", "shop": "butcher", "source": "survey"}}, {"type": "node", "id": 1003040301, "lat": 53.2870515, "lon": -0.3034117, "tags": {"name": "R Whisby Butchers", "shop": "butcher", "source": "survey"}}, {"type": "node", "id": 1015090456, "lat": 53.6826481, "lon": -1.5002353, "tags": {"addr:city": "Wakefield", "addr:housenumber": "18", "addr:postcode": "WF1 1UY", "addr:street": "Silver Street", "fhrs:id": "284363", "name": "H Hofmann & Son", "shop": "butcher"}}, {"type": "node", "id": 1026415960, "lat": 51.6491632, "lon": 0.6091152, "tags": {"addr:housenumber": "2", "addr:postcode": "CM3 5JT", "addr:street": "Warwick Parade", "name": "Smithbright Butchers", "shop": "butcher"}}, {"type": "node", "id": 1028196452, "lat": 53.6790386, "lon": -1.6640429, "tags": {"name": "Madina Halal Meat", "phone": "+44 1924 450700", "shop": "butcher"}}, {"type": "node", "id": 1030098833, "lat": 53.4104657, "lon": -4.3456087, "tags": {"name": "Owen Roberts a'i Fab", "shop": "butcher"}}, {"type": "node", "id": 1032271146, "lat": 51.6994109, "lon": -0.7419432, "tags": {"addr:city": "Great Missenden", "addr:postcode": "HP16 0PN", "addr:street": "Chequers Parade, Wycombe Road", "addr:suburb": "Prestwood", "fhrs:id": "355992", "fhrs:local_authority_id": "08/00009/FBUTC", "fhrs:name": "N Stirrett Butchers", "name": "Stirrett's", "shop": "butcher", "source:addr": "FHRS Open Data"}}, {"type": "node", "id": 1037353974, "lat": 52.203307, "lon": -3.0302878, "tags": {"postal_code": "HR5 3BJ", "shop": "butcher", "source": "visual survey; estimate"}}, {"type": "node", "id": 1037780884, "lat": 53.3208063, "lon": -4.2262982, "tags": {"shop": "butcher"}}, {"type": "node", "id": 1037785875, "lat": 52.2035807, "lon": -3.0291887, "tags": {"addr:city": "Kington", "addr:housenumber": "49-50", "addr:postcode": "HR5 3BJ", "addr:street": "High Street", "name": "Paul Lewis Family Butcher", "shop": "butcher", "source": "visual survey; estimate"}}, {"type": "node", "id": 1043912160, "lat": 51.5409314, "lon": 0.6956931, "tags": {"name": "Mertens Quality Meats", "shop": "butcher"}}, {"type": "node", "id": 1048446473, "lat": 53.4203403, "lon": -2.3056001, "tags": {"addr:housenumber": "138", "addr:postcode": "M33 3HE", "addr:street": "Northenden Road", "name": "Taylors of Sale", "shop": "butcher", "website": "http://www.taylorsofsale.co.uk/"}}, {"type": "node", "id": 1061583809, "lat": 53.2635335, "lon": -2.5774798, "tags": {"name": "Minshull", "shop": "butcher"}}, {"type": "node", "id": 1066080778, "lat": 52.4142248, "lon": 0.748127, "tags": {"addr:city": "Thetford", "addr:housenumber": "38", "addr:postcode": "IP24 2AP", "addr:street": "King Street", "fhrs:id": "832166", "name": "J. Jones", "shop": "butcher", "source:addr:postcode": "FSA Food Hygiene Ratings Database", "website": "https://www.facebook.com/J-Jones-Family-Butcher-184027208313537/"}}, {"type": "node", "id": 1069446680, "lat": 53.5699526, "lon": -1.7866705, "tags": {"name": "A. Quarmby", "shop": "butcher"}}, {"type": "node", "id": 1071429760, "lat": 52.7845398, "lon": -2.0790017, "tags": {"addr:postcode": "ST17 0QD", "addr:street": "Bridle Road", "fhrs:id": "386637", "name": "A. Hindle & Son Butchers", "shop": "butcher", "source:addr": "FHRS Open Data"}}, {"type": "node", "id": 1074314215, "lat": 52.1983826, "lon": -2.2015498, "tags": {"name": "The Butcher Boy", "shop": "butcher"}}, {"type": "node", "id": 1089248582, "lat": 51.4827952, "lon": -3.2138337, "tags": {"name": "A&K Rees Family Butcher", "shop": "butcher", "source": "survey"}}, {"type": "node", "id": 1089248610, "lat": 51.4829159, "lon": -3.2170884, "tags": {"name": "L&S Meats", "shop": "butcher", "source": "survey"}}, {"type": "node", "id": 1091490320, "lat": 51.1961358, "lon": -0.6067614, "tags": {"addr:housenumber": "41", "addr:postcode": "GU7 3LH", "addr:street": "Farncombe Street", "fhrs:id": "426813", "name": "Wakelings", "shop": "butcher"}}, {"type": "node", "id": 1096305316, "lat": 51.5001176, "lon": -0.3066355, "tags": {"name": "Richardson's", "shop": "butcher"}}, {"type": "node", "id": 1096844767, "lat": 53.2562537, "lon": -4.3110931, "tags": {"name": "J. Thomas", "shop": "butcher"}}, {"type": "node", "id": 1097959384, "lat": 51.4991958, "lon": -0.3063405, "tags": {"name": "A. Pearce", "shop": "butcher"}}, {"type": "node", "id": 1107963357, "lat": 53.3593682, "lon": -1.4641388, "tags": {"shop": "butcher"}}, {"type": "node", "id": 1109323421, "lat": 52.602532, "lon": 0.3779101, "tags": {"shop": "butcher"}}, {"type": "node", "id": 1123466177, "lat": 58.2158448, "lon": -6.3849454, "tags": {"addr:city": "Stornoway", "addr:postcode": "HS1 2LB", "addr:street": "Barraid nan R\u00f2p", "fhrs:id": "806676", "name": "Charles Macleod", "shop": "butcher", "website": "https://www.charlesmacleod.co.uk/"}}, {"type": "node", "id": 1123829782, "lat": 53.4217753, "lon": -1.2837461, "tags": {"name": "Smiths Family Butcher", "shop": "butcher"}}, {"type": "node", "id": 1123873971, "lat": 53.6989979, "lon": -1.6136671, "tags": {"name": "Kevins", "phone": "+44 1924 462771", "shop": "butcher"}}, {"type": "node", "id": 1137929795, "lat": 53.6935284, "lon": -1.6291499, "tags": {"shop": "butcher"}}, {"type": "node", "id": 1142237804, "lat": 54.5457612, "lon": -1.2581014, "tags": {"operator": "Newboulds", "shop": "butcher"}}, {"type": "node", "id": 1146126896, "lat": 51.2780047, "lon": -0.3729076, "tags": {"addr:city": "Bookham", "addr:housenumber": "51", "addr:postcode": "KT23 4AD", "addr:street": "High Street", "addr:suburb": "Great Bookham", "fhrs:id": "660408", "fhrs:local_authority_id": "312", "name": "Rawlings & Kensett", "shop": "butcher", "source:addr": "FHRS Open Data"}}, {"type": "node", "id": 1148292273, "lat": 52.3781073, "lon": -0.0906403, "tags": {"addr:city": "Oldhurst", "addr:housenumber": "Church Farm", "addr:postcode": "PE28 3AF", "addr:street": "Church Street", "name": "Johnsons of Oldhurst", "opening_hours": "Tu-Fr 09:00-18:00; Sa 09:00-16:30", "phone": "+44 1487 824658", "shop": "butcher", "website": "https://www.johnsonsofoldhurst.co.uk/"}}, {"type": "node", "id": 1148786486, "lat": 53.3443717, "lon": -1.4238821, "tags": {"shop": "butcher"}}, {"type": "node", "id": 1162333382, "lat": 52.0507372, "lon": -0.7796498, "tags": {"addr:city": "Milton Keynes", "addr:country": "GB", "addr:housenumber": "6", "addr:postcode": "MK13 7PN", "addr:street": "Swinden Court", "addr:suburb": "Heelands", "fhrs:authority": "Milton Keynes", "fhrs:id": "199175", "fhrs:local_authority_id": "67886", "name": "Everfresh Butchers", "shop": "butcher"}}, {"type": "node", "id": 1167134121, "lat": 55.8569446, "lon": -4.5785416, "tags": {"name": "W Holmes", "shop": "butcher"}}, {"type": "node", "id": 1182567183, "lat": 51.0122801, "lon": -1.0866815, "tags": {"name": "Harriott's", "shop": "butcher"}}, {"type": "node", "id": 1184430087, "lat": 50.7983605, "lon": -1.9859843, "tags": {"name": "D W Burton", "shop": "butcher"}}, {"type": "node", "id": 1186277487, "lat": 50.7167544, "lon": -3.5403487, "tags": {"addr:city": "Exeter", "addr:housenumber": "30", "addr:postcode": "EX4 1AL", "addr:street": "Cowick Street", "name": "E Courtney & Son", "shop": "butcher"}}, {"type": "node", "id": 1189253304, "lat": 52.2010084, "lon": 1.0220021, "tags": {"addr:housename": "Silverside House", "addr:postcode": "IP14 4AR", "addr:street": "Gipping Road", "fhrs:id": "527313", "name": "Butcher Shop", "shop": "butcher", "source:addr": "FSA Food Hygiene Ratings Database"}}, {"type": "node", "id": 1190761869, "lat": 56.0392287, "lon": -3.420047, "tags": {"addr:city": "Rosyth", "addr:housenumber": "4", "addr:postcode": "KY11 2JW", "addr:street": "Parkgate", "name": "Neil Hoey", "shop": "butcher"}}, {"type": "node", "id": 1193120317, "lat": 52.0614789, "lon": 1.1838466, "tags": {"name": "Paul J Mickelsen", "shop": "butcher"}}, {"type": "node", "id": 1201003929, "lat": 54.9429874, "lon": -2.7342994, "tags": {"name": "Colin Moore", "shop": "butcher"}}, {"type": "node", "id": 1201022527, "lat": 54.9422364, "lon": -2.7352495, "tags": {"addr:housenumber": "1", "addr:postcode": "CA8 1NG", "addr:source": "FHRS Open Data", "addr:street": "Front Street", "fhrs:id": "893242", "name": "Cranstons", "shop": "butcher"}}, {"type": "node", "id": 1201935298, "lat": 51.8120658, "lon": 0.1509976, "tags": {"shop": "butcher"}}, {"type": "node", "id": 1211493252, "lat": 54.5626531, "lon": -1.3120327, "tags": {"layer": "1", "shop": "butcher", "source": "survey"}}, {"type": "node", "id": 1216002602, "lat": 51.6477139, "lon": 0.0833039, "tags": {"shop": "butcher"}}, {"type": "node", "id": 1222597493, "lat": 52.9698482, "lon": -3.1702611, "tags": {"addr:city": "Llangollen", "addr:country": "GB", "addr:housenumber": "19-21", "addr:postcode": "LL20 8NY", "addr:street": "Castle Street", "fhrs:authority": "Denbighshire", "fhrs:id": "920889", "fhrs:local_authority_id": "701911", "name": "Gwyn Davies Ltd", "name:en": "G Davies Ltd Butchers", "shop": "butcher"}}, {"type": "node", "id": 1232955163, "lat": 53.215152, "lon": -0.6051363, "tags": {"shop": "butcher"}}, {"type": "node", "id": 1233190916, "lat": 54.6076296, "lon": -1.2913871, "tags": {"name": "Robert's", "shop": "butcher", "source": "survey"}}, {"type": "node", "id": 1233453914, "lat": 50.8421494, "lon": -0.7902698, "tags": {"addr:city": "Chichester", "addr:housenumber": "2", "addr:postcode": "PO19 3LA", "addr:street": "The Ridgeway, Oliver Whitby Road", "fhrs:id": "1101998", "name": "MJ Penfold Butchers", "opening_hours": "Tu-Fr 06:00-17:00; Sa 06:00-16:00", "phone": "+44 1243 784299", "shop": "butcher"}}, {"type": "node", "id": 1234721592, "lat": 52.9876694, "lon": -1.98859, "tags": {"name": "Heaths", "shop": "butcher"}}, {"type": "node", "id": 1234721598, "lat": 52.9872165, "lon": -1.9891327, "tags": {"name": "Wollicrofts Butchers", "shop": "butcher"}}, {"type": "node", "id": 1235930356, "lat": 57.3431619, "lon": -2.6118899, "tags": {"name": "Dean's Country Butcher", "opening_hours": "Tu-Sa 08:30-16:30", "shop": "butcher"}}, {"type": "node", "id": 1235959354, "lat": 53.1485835, "lon": -4.19082, "tags": {"name": "Wavells", "shop": "butcher"}}, {"type": "node", "id": 1239840372, "lat": 52.244178, "lon": 0.4045039, "tags": {"addr:city": "Newmarket", "addr:housenumber": "8", "addr:postcode": "CB8 0HT", "addr:street": "Wellington Street", "fhrs:id": "168748", "name": "Powter's Butchery (Newmarket Sausages)", "shop": "butcher"}}, {"type": "node", "id": 1239878537, "lat": 52.0197744, "lon": 1.1242694, "tags": {"addr:city": "Ipswich", "addr:postcode": "IP9 2AR", "addr:street": "Pannington Hall Lane", "shop": "butcher", "website": "https://jimmysfarm.com/"}}, {"type": "node", "id": 1240900786, "lat": 53.0381727, "lon": -1.3758079, "tags": {"addr:housenumber": "26-28", "addr:postcode": "DE5 9SH", "addr:street": "Heanor Road", "fhrs:id": "949", "name": "Hunts", "shop": "butcher", "source:addr": "FHRS Open Data"}}, {"type": "node", "id": 1243002275, "lat": 51.2916942, "lon": -2.4477551, "tags": {"addr:postcode": "BA3 3PL", "facebook": "https://www.facebook.com/Phildaybutcher/", "fhrs:id": "914593", "name": "Phil Day Traditional Family Butchers", "shop": "butcher"}}, {"type": "node", "id": 1243143313, "lat": 51.3658362, "lon": -2.6115725, "tags": {"addr:postcode": "BS40 8PR", "addr:street": "High Street", "facebook": "https://www.facebook.com/wjpearceandsons/", "fhrs:id": "204609", "name": "W J Pearce & Sons", "shop": "butcher"}}, {"type": "node", "id": 1249128368, "lat": 51.6093795, "lon": -3.3302585, "tags": {"name": "K.M. Hughes", "shop": "butcher", "source": "survey"}}, {"type": "node", "id": 1259288336, "lat": 51.8145647, "lon": -0.7848289, "tags": {"name": "Beef Olive", "shop": "butcher"}}, {"type": "node", "id": 1262064800, "lat": 53.1934519, "lon": -1.0637074, "tags": {"addr:housenumber": "43", "addr:postcode": "NG21 9QR", "addr:street": "High Street", "fhrs:id": "557156", "name": "David Goff Quality Butchers", "shop": "butcher", "source:addr": "FHRS Open Data", "source:name": "FHRS Open Data"}}, {"type": "node", "id": 1262064806, "lat": 53.1931148, "lon": -1.0658352, "tags": {"addr:postcode": "NG21 9QT", "addr:street": "West Lane", "fhrs:id": "557157", "name": "P&G Locke's Butcher", "shop": "butcher", "source:addr": "FHRS Open Data"}}, {"type": "node", "id": 1262516368, "lat": 54.9620339, "lon": -1.6036757, "tags": {"addr:city": "Gateshead", "addr:street": "West Street", "name": "Get Carters", "shop": "butcher"}}, {"type": "node", "id": 1271227627, "lat": 51.9484936, "lon": -3.3919883, "tags": {"addr:housenumber": "9-12", "addr:postcode": "LD3 9DA", "addr:street": "Market Arcade", "name": "P F Sweeney", "shop": "butcher"}}, {"type": "node", "id": 1272311275, "lat": 51.2796729, "lon": -0.3752724, "tags": {"name": "Ken Davey", "shop": "butcher"}}, {"type": "node", "id": 1274114264, "lat": 53.3673539, "lon": -0.0014235, "tags": {"name": "A. Dales and Sons", "shop": "butcher", "source": "survey"}}, {"type": "node", "id": 1291812753, "lat": 52.1148163, "lon": -0.5063251, "tags": {"addr:city": "Kempston", "addr:country": "GB", "addr:housenumber": "100", "addr:postcode": "MK42 7AR", "addr:street": "High Street", "fhrs:authority": "Bedford", "fhrs:id": "106521", "fhrs:local_authority_id": "37029", "name": "McKenzie Butchers", "shop": "butcher", "source": "Bing"}}, {"type": "node", "id": 1292142849, "lat": 54.7217729, "lon": -5.8134892, "tags": {"shop": "butcher"}}, {"type": "node", "id": 1295105298, "lat": 52.1375343, "lon": -0.4694191, "tags": {"addr:city": "Bedford", "addr:country": "GB", "addr:housenumber": "5", "addr:postcode": "MK40 1LQ", "addr:street": "Church Arcade", "fhrs:authority": "Bedford", "fhrs:id": "88824", "fhrs:local_authority_id": "23484", "name": "D. P. Clarke", "shop": "butcher", "source": "Bing"}}, {"type": "node", "id": 1295105302, "lat": 52.1369192, "lon": -0.4543725, "tags": {"addr:city": "Bedford", "addr:country": "GB", "addr:housenumber": "113", "addr:postcode": "MK40 3QX", "addr:street": "Castle Road", "fhrs:authority": "Bedford", "fhrs:id": "87945", "fhrs:local_authority_id": "22941", "name": "F Harris and Son", "opening_hours": "Tu-Th 08:00-13:00,14:00-17:15; Fr 08:00-17:15; Sa 08:00-16:00", "shop": "butcher"}}, {"type": "node", "id": 1298644356, "lat": 52.0799638, "lon": -0.5585379, "tags": {"addr:housename": "Walnut Tree Farm", "addr:postcode": "MK43 0LT", "name": "Evans and Son", "shop": "butcher", "source": "Bing", "website": "http://www.evansbutchers.co.uk/"}}, {"type": "node", "id": 1299361581, "lat": 50.7250781, "lon": -1.1640276, "tags": {"addr:city": "Ryde", "addr:country": "GB", "addr:housenumber": "108", "addr:postcode": "PO33 2SZ", "addr:street": "High Street", "contact:phone": "+44 1983 562 382", "contact:website": "http://www.dwjarvis.co.uk/home.html", "fhrs:id": "541173", "name": "DW Jarvis", "opening_hours": "Mo-Sa 09:00-16:00", "shop": "butcher"}}, {"type": "node", "id": 1299423078, "lat": 53.5642569, "lon": -0.0869784, "tags": {"name": "Pettit (Closed Down)", "shop": "butcher", "source": "survey"}}, {"type": "node", "id": 1300659661, "lat": 51.7482114, "lon": -0.4318792, "tags": {"addr:city": "Hemel Hempstead", "addr:country": "GB", "addr:district": "Leverstock Green", "addr:postcode": "HP3 8QG", "addr:street": "Village Centre", "name": "D.P Clarke", "shop": "butcher"}}, {"type": "node", "id": 1303524532, "lat": 53.367275, "lon": -0.0022424, "tags": {"name": "Meridian Meats", "shop": "butcher", "source": "survey"}}, {"type": "node", "id": 1303524533, "lat": 53.3673577, "lon": -0.0013488, "tags": {"name": "Jacksons", "shop": "butcher", "source": "survey"}}, {"type": "node", "id": 1308343548, "lat": 56.2432866, "lon": -4.214914, "tags": {"name": "D. Campbell & Son", "shop": "butcher", "source": "survey"}}, {"type": "node", "id": 1309490430, "lat": 52.1491975, "lon": -0.4394904, "tags": {"addr:city": "Bedford", "addr:country": "GB", "addr:housenumber": "82", "addr:postcode": "MK41 9BS", "addr:street": "Queens Drive", "fhrs:authority": "Bedford", "fhrs:id": "798153", "fhrs:local_authority_id": "121420", "name": "The Meat Shop", "shop": "butcher", "source": "Bing"}}, {"type": "node", "id": 1311523503, "lat": 51.6668178, "lon": -0.5640955, "tags": {"name": "T.A. Robertson", "shop": "butcher", "source:name": "survey"}}, {"type": "node", "id": 1312678058, "lat": 51.6502992, "lon": -3.2707013, "tags": {"shop": "butcher"}}, {"type": "node", "id": 1312678765, "lat": 51.5950835, "lon": -0.3844047, "tags": {"name": "Hilton & Family", "shop": "butcher"}}, {"type": "node", "id": 1312736617, "lat": 51.6296618, "lon": -0.4336951, "tags": {"name": "Tolly & Sons Ltd", "phone": "+44 1923 821 665", "shop": "butcher", "website": "www.tollyandsons.com"}}, {"type": "node", "id": 1314275406, "lat": 51.6491228, "lon": -0.1287341, "tags": {"addr:housenumber": "199", "addr:postcode": "N14 4XA", "addr:street": "Bramley Road", "name": "F Norman", "shop": "butcher", "website": "https://www.fnorman.co.uk/"}}, {"type": "node", "id": 1318030316, "lat": 57.5840401, "lon": -3.8703998, "tags": {"name": "Clark & Son", "phone": "+44 1667 453221", "shop": "butcher"}}, {"type": "node", "id": 1319352082, "lat": 52.5390148, "lon": -2.8054666, "tags": {"shop": "butcher"}}, {"type": "node", "id": 1319352089, "lat": 52.5383779, "lon": -2.8058199, "tags": {"shop": "butcher"}}, {"type": "node", "id": 1322039147, "lat": 51.5411456, "lon": 0.0008596, "tags": {"addr:city": "London", "addr:housenumber": "4", "addr:postcode": "E15 1XA", "addr:street": "The Mall", "fhrs:id": "641142", "fhrs:local_authority_id": "77650/0004/0/000", "name": "Dewhurst Stratford", "shop": "butcher", "source:addr": "FHRS Open Data", "wheelchair": "yes"}}, {"type": "node", "id": 1326217539, "lat": 50.868285, "lon": -0.4070628, "tags": {"addr:postcode": "BN14 0TE", "addr:street": "The Square", "fhrs:id": "438646", "name": "Peckham's Butcher", "shop": "butcher", "source:addr": "FHRS Open Data", "source:name": "FHRS Open Data"}}, {"type": "node", "id": 1327650236, "lat": 50.1242048, "lon": -5.6795102, "tags": {"addr:city": "St Just", "addr:country": "GB", "addr:housenumber": "11", "addr:postcode": "TR19 7HD", "addr:state": "England", "addr:street": "Market Square", "fhrs:id": "508148", "name": "K&D McFaddon & Sons", "shop": "butcher", "source": "Bing;Mapillary"}}, {"type": "node", "id": 1331393980, "lat": 53.3283579, "lon": -1.9828983, "tags": {"name": "Edwin Wild", "phone": "+44 1663 732180", "shop": "butcher", "source": "survey"}}, {"type": "node", "id": 1332098405, "lat": 50.954954, "lon": -0.1294399, "tags": {"addr:housenumber": "7", "addr:postcode": "RH15 9BB", "addr:street": "Church Road", "name": "Wood and Sons Butcher", "shop": "butcher"}}, {"type": "node", "id": 1332261803, "lat": 52.585932, "lon": -2.1236491, "tags": {"name": "Rennison's Butchers", "shop": "butcher", "source": "photographic_survey"}}, {"type": "node", "id": 1335793905, "lat": 53.366223, "lon": -2.0019228, "tags": {"name": "Bryan's Family Butchers", "shop": "butcher", "source": "survey"}}, {"type": "node", "id": 1337504285, "lat": 51.539239, "lon": 0.0570346, "tags": {"shop": "butcher"}}, {"type": "node", "id": 1341652778, "lat": 55.8027818, "lon": -4.0685356, "tags": {"name": "A. Donald", "shop": "butcher", "source": "survey"}}, {"type": "node", "id": 1342581764, "lat": 52.7627536, "lon": 1.110838, "tags": {"shop": "butcher"}}, {"type": "node", "id": 1342624336, "lat": 51.9711187, "lon": 0.8733862, "tags": {"addr:city": "Colchester", "addr:housenumber": "9", "addr:postcode": "CO6 4JL", "addr:street": "Court Street", "addr:village": "Nayland", "fhrs:id": "526737", "name": "I H Kerridge", "shop": "butcher", "source:addr": "FHRS Open Data"}}, {"type": "node", "id": 1345549241, "lat": 54.5651214, "lon": -1.1837091, "tags": {"shop": "butcher"}}, {"type": "node", "id": 1349067622, "lat": 57.0798861, "lon": -4.0511424, "tags": {"name": "George Gow", "shop": "butcher"}}, {"type": "node", "id": 1355726533, "lat": 51.5897157, "lon": -1.7650643, "tags": {"name": "Glynn's Butchers", "shop": "butcher"}}, {"type": "node", "id": 1363769715, "lat": 53.9450887, "lon": -1.0927074, "tags": {"addr:housenumber": "137", "addr:postcode": "YO23 1HD", "addr:street": "Albemarle Road", "name": "Knavesmire Butchers & Farmers", "shop": "butcher"}}, {"type": "node", "id": 1363849640, "lat": 53.121204, "lon": -1.404531, "tags": {"name": "Manor Farm Shop", "shop": "butcher", "source": "survey"}}, {"type": "node", "id": 1366526048, "lat": 53.9564468, "lon": -0.4388582, "tags": {"shop": "butcher"}}, {"type": "node", "id": 1366792910, "lat": 54.53364, "lon": -1.5790626, "tags": {"addr:city": "Darlington", "addr:street": "Walworth Road", "name": "W Alderson And Son", "shop": "butcher"}}, {"type": "node", "id": 1368427629, "lat": 54.6959488, "lon": -5.870092, "tags": {"name": "McKee's", "shop": "butcher"}}, {"type": "node", "id": 1377182848, "lat": 54.461661, "lon": -6.084223, "tags": {"shop": "butcher"}}, {"type": "node", "id": 1382138541, "lat": 53.4298931, "lon": -2.3427179, "tags": {"shop": "butcher"}}, {"type": "node", "id": 1382225600, "lat": 53.6551696, "lon": -2.9741152, "tags": {"addr:city": "Southport", "addr:housenumber": "25", "addr:postcode": "PR9 7JG", "addr:street": "Hesketh Drive", "name": "Holmes Smith", "phone": "+44 1704 228938", "shop": "butcher"}}, {"type": "node", "id": 1384833310, "lat": 51.9471921, "lon": -0.2788771, "tags": {"name": "Allinghams Butchers", "shop": "butcher"}}, {"type": "node", "id": 1389370480, "lat": 51.4231519, "lon": -1.1803024, "tags": {"name": "The Bladebone Butchery", "phone": "+44 118 9713508", "shop": "butcher"}}, {"type": "node", "id": 1399148306, "lat": 50.5152558, "lon": -4.8354599, "tags": {"shop": "butcher"}}, {"type": "node", "id": 1400317774, "lat": 54.2454824, "lon": -0.7764634, "tags": {"shop": "butcher", "wheelchair": "no"}}, {"type": "node", "id": 1401007667, "lat": 55.4579753, "lon": -2.6826766, "tags": {"name": "Douglas and Son", "shop": "butcher", "source": "survey"}}, {"type": "node", "id": 1409837172, "lat": 51.09155, "lon": -3.0168601, "tags": {"name": "Scrivens", "shop": "butcher"}}, {"type": "node", "id": 1413100894, "lat": 52.8457994, "lon": -1.6463274, "tags": {"addr:postcode": "DE13 9AG", "addr:street": "Chapel Lane", "addr:village": "Rolleston on Dove", "fhrs:id": "388133", "name": "Ian Barker Butcher", "shop": "butcher"}}, {"type": "node", "id": 1413884575, "lat": 53.679149, "lon": -1.7739996, "tags": {"shop": "butcher"}}, {"type": "node", "id": 1425209770, "lat": 54.3700899, "lon": -1.4396781, "tags": {"addr:housename": "Crawford Grange", "addr:postcode": "DL6 2PD", "name": "Langthorne's Buffalo Produce", "shop": "butcher"}}, {"type": "node", "id": 1426870931, "lat": 52.9223256, "lon": -1.4753561, "tags": {"addr:city": "Derby", "addr:postcode": "DE1 2DB", "fhrs:id": "732351", "level": "0", "name": "Michael's", "not:addr:postcode": "DE1 3AE", "shop": "butcher", "source": "photographic_survey"}}, {"type": "node", "id": 1426870940, "lat": 52.922425, "lon": -1.4755423, "tags": {"addr:city": "Derby", "addr:place": "Market Hall", "addr:postcode": "DE1 2DB", "addr:unit": "14", "fhrs:id": "216030", "level": "0", "name": "S & J Lewin", "note": "Stall 14", "shop": "butcher", "source": "photographic_survey", "source:addr": "FHRS Open Data", "website": "https://www.derbycathedralquarter.co.uk/SJLewin/"}}, {"type": "node", "id": 1435322495, "lat": 55.9333253, "lon": -3.1780752, "tags": {"addr:housenumber": "74", "addr:street": "Ratcliffe Terrace", "name": "Mathieson", "shop": "butcher", "source": "survey"}}, {"type": "node", "id": 1437256198, "lat": 53.9107672, "lon": -0.1743275, "tags": {"shop": "butcher", "source": "survey"}}, {"type": "node", "id": 1438891441, "lat": 51.7971748, "lon": -0.3940896, "tags": {"name": "W Hall", "shop": "butcher"}}, {"type": "node", "id": 1446518470, "lat": 52.0924966, "lon": -1.7664629, "tags": {"shop": "butcher", "source": "survey"}}, {"type": "node", "id": 1450690472, "lat": 51.8401565, "lon": 0.7051366, "tags": {"name": "The Master Butcher", "shop": "butcher"}}, {"type": "node", "id": 1454255994, "lat": 50.9926089, "lon": -2.3406883, "tags": {"name": "Blackmore Vale Butchery", "shop": "butcher"}}, {"type": "node", "id": 1458156270, "lat": 52.2931073, "lon": -0.2545805, "tags": {"addr:housenumber": "28", "addr:postcode": "PE19 5XA", "addr:street": "High Street", "name": "Day's of Buckden", "shop": "butcher"}}, {"type": "node", "id": 1460274533, "lat": 54.2820722, "lon": -3.3719651, "tags": {"name": "Bewley's Butcher", "shop": "butcher"}}, {"type": "node", "id": 1462955712, "lat": 52.1254381, "lon": -0.480821, "tags": {"addr:city": "Kempston", "addr:country": "GB", "addr:housenumber": "8", "addr:postcode": "MK42 8AD", "addr:street": "Bedford Road", "fhrs:authority": "Bedford", "fhrs:id": "105248", "fhrs:local_authority_id": "36136", "name": "P J Ashpole and Son", "shop": "butcher", "source": "Bing"}}, {"type": "node", "id": 1464494136, "lat": 51.6448465, "lon": 0.6181942, "tags": {"name": "Foodland", "shop": "butcher"}}, {"type": "node", "id": 1471106187, "lat": 50.366515, "lon": -5.054343, "tags": {"name": "Georges Butcher", "shop": "butcher"}}, {"type": "node", "id": 1474201235, "lat": 52.7259365, "lon": 1.1753669, "tags": {"name": "Swannington Farm to Fork Butchery", "shop": "butcher"}}, {"type": "node", "id": 1476623299, "lat": 51.8711596, "lon": 0.1589754, "tags": {"shop": "butcher"}}, {"type": "node", "id": 1485041294, "lat": 54.5613446, "lon": -0.9815275, "tags": {"shop": "butcher"}}, {"type": "node", "id": 1487239444, "lat": 53.3299465, "lon": -1.6568105, "tags": {"name": "Paul Bowyer Traditional Butchers & Delicatessen", "shop": "butcher"}}, {"type": "node", "id": 1489915877, "lat": 54.9460087, "lon": -1.9039407, "tags": {"name": "S Whitelaw", "shop": "butcher"}}, {"type": "node", "id": 1490191358, "lat": 53.2313075, "lon": -0.8988752, "tags": {"shop": "butcher"}}, {"type": "node", "id": 1491908231, "lat": 59.0838653, "lon": -3.042664, "tags": {"shop": "butcher"}}, {"type": "node", "id": 1497258110, "lat": 50.7848525, "lon": -1.0899834, "tags": {"addr:city": "Southsea", "addr:housenumber": "70", "addr:postcode": "PO5 3LU", "addr:street": "Osborne Road", "name": "Buckwells of Southsea", "opening_hours": "Tu 08:00-17:30; We 08:00-13:00; Th-Fr 08:00-17:30; Sa 08:00-16:00", "phone": "+44 2392 827053", "shop": "butcher", "website": "http://www.buckwells.co.uk/"}}, {"type": "node", "id": 1506771157, "lat": 52.2983342, "lon": -0.0719669, "tags": {"name": "Fenstanton Family Butchers", "shop": "butcher"}}, {"type": "node", "id": 1507744907, "lat": 51.9738391, "lon": -4.6470692, "tags": {"name": "Ken Davies a'i Fab", "shop": "butcher"}}, {"type": "node", "id": 1508762681, "lat": 50.8280858, "lon": -0.1752019, "tags": {"addr:city": "Hove", "addr:housenumber": "158", "addr:postcode": "BN3 2DL", "addr:street": "Church Road", "cuisine": "international", "internet_access": "no", "name": "Brazillian Centre Hove", "outdoor_seating": "no", "shop": "butcher"}}, {"type": "node", "id": 1510690912, "lat": 52.5279294, "lon": -2.1945801, "tags": {"name": "Bromleys", "shop": "butcher"}}, {"type": "node", "id": 1511576202, "lat": 50.9651248, "lon": -4.2526531, "tags": {"name": "Babb's", "opening_hours": "closed", "shop": "butcher"}}, {"type": "node", "id": 1523181964, "lat": 52.5907098, "lon": -3.8527692, "tags": {"name": "Williams & Son", "shop": "butcher"}}, {"type": "node", "id": 1530100842, "lat": 52.7418804, "lon": -1.8777068, "tags": {"name": "N J & E T Coles", "shop": "butcher"}}, {"type": "node", "id": 1531359336, "lat": 51.5050634, "lon": -3.5771031, "tags": {"name": "James Butchers", "shop": "butcher"}}, {"type": "node", "id": 1535922156, "lat": 53.6434259, "lon": -1.8124535, "tags": {"addr:city": "Huddersfield", "addr:country": "GB", "addr:housenumber": "187-189", "addr:interpolation": "odd", "addr:postcode": "HD1 4UL", "addr:street": "Church Street", "addr:suburb": "Paddock", "email": "enquiries@sharlands.co.uk", "fhrs:id": "229604", "name": "Sharland's of Paddock", "opening_hours": "Mo-Fr 07:30-17:00; We,Sa 07:30-12:30", "phone": "+44 1484 428660", "shop": "butcher", "website": "http://www.sharlands.co.uk/"}}, {"type": "node", "id": 1540888774, "lat": 51.5592243, "lon": -0.1165427, "tags": {"butcher": "halal", "name": "Al Rahma", "shop": "butcher"}}, {"type": "node", "id": 1540952662, "lat": 51.5802396, "lon": -0.1238542, "tags": {"addr:city": "London", "addr:housenumber": "9", "addr:street": "Park Road", "name": "Freemans", "shop": "butcher"}}, {"type": "node", "id": 1555878362, "lat": 53.5468154, "lon": -2.0901061, "tags": {"shop": "butcher"}}, {"type": "node", "id": 1556243048, "lat": 50.913833, "lon": -1.4222786, "tags": {"shop": "butcher"}}, {"type": "node", "id": 1559993664, "lat": 51.3520668, "lon": -1.9904498, "tags": {"name": "Walter Rose & Son", "shop": "butcher"}}, {"type": "node", "id": 1561064723, "lat": 52.929796, "lon": 1.2984068, "tags": {"addr:housenumber": "69", "addr:postcode": "NR27 9HH", "addr:street": "Church Street", "name": "Icarus Hines", "shop": "butcher", "website": "http://www.icarushines.co.uk/"}}, {"type": "node", "id": 1562986879, "lat": 53.7975459, "lon": -1.5388987, "tags": {"name": "B & J Callard", "shop": "butcher"}}, {"type": "node", "id": 1563592647, "lat": 54.8086807, "lon": -6.3507868, "tags": {"shop": "butcher"}}, {"type": "node", "id": 1565015477, "lat": 52.578675, "lon": 1.7069608, "tags": {"name": "Bradwell Butchers", "shop": "butcher"}}, {"type": "node", "id": 1568917880, "lat": 54.9711722, "lon": -2.1012307, "tags": {"shop": "butcher"}}, {"type": "node", "id": 1581329380, "lat": 53.3762308, "lon": -2.1886995, "tags": {"name": "J. Pimlott", "shop": "butcher"}}, {"type": "node", "id": 1583997766, "lat": 55.4128132, "lon": -1.7074372, "tags": {"addr:housenumber": "33-35", "addr:postcode": "NE66 1SS", "addr:street": "Market Street", "fhrs:id": "285839", "name": "R Turnbull & Sons", "shop": "butcher", "source:addr": "FHRS Open Data"}}, {"type": "node", "id": 1585545520, "lat": 50.9355019, "lon": -0.9993591, "tags": {"addr:city": "Clanfield, Waterlooville", "addr:housenumber": "38", "addr:postcode": "PO8 0JL", "addr:street": "Drift Road", "name": "Ron Reeves", "opening_hours": "Mo-Tu 08:00-17:30; We 08:00-13:00; Th-Fr 08:00-17:30; Sa 08:00-14:00", "phone": "+44 2392 593633", "shop": "butcher", "website": "www.ron-reeve.co.uk"}}, {"type": "node", "id": 1591742132, "lat": 50.4310386, "lon": -3.6850816, "tags": {"name": "Hall's", "shop": "butcher"}}, {"type": "node", "id": 1594563255, "lat": 51.5458593, "lon": -0.1623474, "tags": {"addr:housenumber": "40", "addr:postcode": "NW3 4UE", "addr:street": "England's Lane", "name": "Barretts", "shop": "butcher", "website": "http://www.barrettsbutchers.co.uk/", "wheelchair": "limited"}}, {"type": "node", "id": 1596223030, "lat": 51.0534252, "lon": -0.2003443, "tags": {"name": "Handcross Butchers.", "shop": "butcher"}}, {"type": "node", "id": 1599120503, "lat": 51.7517433, "lon": -1.297839, "tags": {"name": "A.J. Brock", "opening_hours": "Mo 08:00-12:00; Tu-Fr 08:00-18:00; Sa 08:00-16:00", "phone": "+44 1865 242031", "shop": "butcher"}}, {"type": "node", "id": 1599999012, "lat": 55.8015003, "lon": -3.9165379, "tags": {"shop": "butcher"}}, {"type": "node", "id": 1600288290, "lat": 55.8585698, "lon": -4.2160708, "tags": {"name": "David S Mason", "shop": "butcher"}}, {"type": "node", "id": 1602832408, "lat": 50.4309709, "lon": -3.6835895, "tags": {"addr:city": "Totnes", "addr:housenumber": "5", "addr:postcode": "TQ9 5DA", "addr:street": "Fore Street", "fhrs:id": "808594", "name": "McCabe's", "shop": "butcher"}}, {"type": "node", "id": 1604665901, "lat": 54.8975301, "lon": -2.2540188, "tags": {"addr:city": "Allendale", "addr:postcode": "NE47 9BD", "addr:province": "Northumberland", "addr:street": "Market Place", "fhrs:id": "287367", "name": "Allendale Butchers", "shop": "butcher"}}, {"type": "node", "id": 1605507542, "lat": 54.8594391, "lon": -6.2749046, "tags": {"name": "J Sloan", "shop": "butcher"}}, {"type": "node", "id": 1610632088, "lat": 52.6124432, "lon": -2.0999141, "tags": {"shop": "butcher"}}, {"type": "node", "id": 1611064131, "lat": 55.8552115, "lon": -4.2358915, "tags": {"name": "GA Low & Son", "shop": "butcher"}}, {"type": "node", "id": 1611156232, "lat": 53.1384667, "lon": -1.5549627, "tags": {"addr:city": "Matlock", "addr:housenumber": "2", "addr:postcode": "DE4 3AQ", "addr:street": "Bank Road", "fhrs:id": "258189", "name": "Hambridges", "shop": "butcher", "wheelchair": "yes"}}, {"type": "node", "id": 1612032173, "lat": 51.0891566, "lon": -2.2691348, "tags": {"name": "Davies Butcher", "shop": "butcher"}}, {"type": "node", "id": 1612149103, "lat": 55.8602223, "lon": -4.2402612, "tags": {"name": "The Country Shop", "shop": "butcher"}}, {"type": "node", "id": 1613019140, "lat": 51.5358008, "lon": -0.1165392, "tags": {"shop": "butcher"}}, {"type": "node", "id": 1619183028, "lat": 52.3161444, "lon": -0.1742448, "tags": {"name": "T&S Thomas", "shop": "butcher"}}, {"type": "node", "id": 1623414933, "lat": 52.8966254, "lon": -2.1500404, "tags": {"name": "Brydon's Butcher", "shop": "butcher"}}, {"type": "node", "id": 1627255053, "lat": 50.7954381, "lon": 0.0011457, "tags": {"shop": "butcher"}}, {"type": "node", "id": 1628708784, "lat": 55.820226, "lon": -4.2332822, "tags": {"name": "Adam", "shop": "butcher"}}, {"type": "node", "id": 1636938647, "lat": 54.0047316, "lon": -2.2230818, "tags": {"addr:city": "Skipton", "addr:postcode": "BD23 4ET", "addr:street": "Main Road", "addr:village": "Hellifield", "name": "Moorhouse Butchers", "phone": "+44 1729 850230", "shop": "butcher"}}, {"type": "node", "id": 1637182726, "lat": 51.6420114, "lon": -0.0964246, "tags": {"addr:housenumber": "25", "name": "M. Peatchey", "shop": "butcher"}}, {"type": "node", "id": 1637944090, "lat": 55.8582784, "lon": -4.2203957, "tags": {"name": "J McDonald", "phone": "+44 141 550 1020", "shop": "butcher"}}, {"type": "node", "id": 1638057300, "lat": 54.1686272, "lon": -2.8268055, "tags": {"shop": "butcher"}}, {"type": "node", "id": 1639069632, "lat": 51.3727611, "lon": -0.1684765, "tags": {"addr:city": "Carshalton", "addr:housenumber": "5-7", "addr:postcode": "SM5 2DS", "addr:street": "Green Wrythe Lane", "fhrs:authority": "Sutton", "fhrs:id": "455687", "name": "Scotts Butchers & Grill", "shop": "butcher", "source": "survey;code-point open;fhrs", "survey:date": "2018-11-22"}}, {"type": "node", "id": 1642384189, "lat": 52.787145, "lon": -2.6558659, "tags": {"addr:city": "Shawbury", "addr:housenumber": "122A", "addr:postcode": "SY4 4NH", "addr:street": "Church Street", "fhrs:id": "126061", "name": "Cherrington", "shop": "butcher", "source:addr": "FHRS Open Data"}}, {"type": "node", "id": 1645739104, "lat": 53.7553974, "lon": -0.3590484, "tags": {"name": "A.T.L. Norman", "shop": "butcher"}}, {"type": "node", "id": 1645739146, "lat": 53.7559364, "lon": -0.3741788, "tags": {"name": "Dixon Brothers", "shop": "butcher"}}, {"type": "node", "id": 1645951244, "lat": 51.4537237, "lon": -1.2727216, "tags": {"name": "Crown Butchers", "shop": "butcher"}}, {"type": "node", "id": 1649501687, "lat": 50.7259784, "lon": -1.5887823, "tags": {"name": "The Butchers Shop", "shop": "butcher"}}, {"type": "node", "id": 1649505179, "lat": 50.7252186, "lon": -1.5876196, "tags": {"name": "DJ Gregory Butchers", "shop": "butcher"}}, {"type": "node", "id": 1651875169, "lat": 54.6646943, "lon": -2.7514631, "tags": {"addr:city": "Penrith", "addr:street": "Devonshire Shopping Arcade", "name": "Staffield Farm Meats", "shop": "butcher"}}, {"type": "node", "id": 1651875170, "lat": 54.6634762, "lon": -2.7509985, "tags": {"addr:city": "Penrith", "addr:housenumber": "10", "addr:postcode": "CA11 7AJ", "addr:street": "King Street", "name": "Cranstons", "phone": "01768 865667", "shop": "butcher", "website": "https://cranstons.net/"}}, {"type": "node", "id": 1652156721, "lat": 51.7478931, "lon": -0.9793004, "tags": {"name": "Newitts", "shop": "butcher"}}, {"type": "node", "id": 1653481540, "lat": 54.6628164, "lon": -2.753433, "tags": {"addr:city": "Penrith", "addr:housenumber": "23", "addr:postcode": "CA11 7DE", "addr:street": "Great Dockray", "name": "Jacksons Family Butchers", "phone": "01768 868689", "shop": "butcher"}}, {"type": "node", "id": 1654166252, "lat": 53.8602952, "lon": -1.6914991, "tags": {"addr:city": "Leeds", "addr:housenumber": "20", "addr:postcode": "LS19 7SF", "addr:street": "Gill Lane", "addr:suburb": "Yeadon", "fhrs:id": "320514", "name": "J B Meays & Son", "shop": "butcher"}}, {"type": "node", "id": 1654321623, "lat": 51.5467775, "lon": -0.0758242, "tags": {"addr:housenumber": "20", "name": "Shaba Butchers", "shop": "butcher"}}, {"type": "node", "id": 1656264728, "lat": 50.6605279, "lon": -3.7663749, "tags": {"name": "Michael Howard Butchers and Delicatessen", "shop": "butcher"}}, {"type": "node", "id": 1656300663, "lat": 50.6731585, "lon": -3.8401009, "tags": {"name": "AL Martins & Son Family Butchers", "shop": "butcher"}}, {"type": "node", "id": 1658946926, "lat": 54.5299725, "lon": -2.6768039, "tags": {"name": "Bellas's", "shop": "butcher"}}, {"type": "node", "id": 1660995226, "lat": 55.9361121, "lon": -3.2095201, "tags": {"addr:city": "Edinburgh", "addr:housenumber": "186", "addr:postcode": "EH10 4DF", "addr:street": "Bruntsfield Place", "name": "Wm. Christie", "shop": "butcher", "source": "survey"}}, {"type": "node", "id": 1661051163, "lat": 54.4318036, "lon": -6.2982393, "tags": {"name": "Trader D's Butchers", "shop": "butcher", "source": "Survey"}}, {"type": "node", "id": 1663626175, "lat": 55.1803723, "lon": -2.8124117, "tags": {"addr:housenumber": "46", "addr:postcode": "TD9 0RA", "addr:street": "North Hermitage Street", "name": "T. Elliot & Sons", "shop": "butcher"}}, {"type": "node", "id": 1666033651, "lat": 53.7098956, "lon": -0.8722199, "tags": {"addr:housenumber": "10-12", "addr:postcode": "DN14 6JX", "addr:street": "Westfield Avenue", "name": "Steve's Quality Foods", "shop": "butcher"}}, {"type": "node", "id": 1666053895, "lat": 54.4808531, "lon": -6.2263826, "tags": {"name": "McCartneys Butcher", "shop": "butcher"}}, {"type": "node", "id": 1667147363, "lat": 51.5459544, "lon": -2.6205158, "tags": {"name": "Farm Shop", "shop": "butcher"}}, {"type": "node", "id": 1668506632, "lat": 51.4942147, "lon": -0.1743319, "tags": {"name": "Viandas", "opening_hours": "Mo-Su 10:00-21:00", "shop": "butcher"}}, {"type": "node", "id": 1669575769, "lat": 52.4382245, "lon": -1.4505591, "tags": {"shop": "butcher"}}, {"type": "node", "id": 1673294896, "lat": 53.289881, "lon": -3.0634045, "tags": {"name": "Tracey's Food Hall", "shop": "butcher"}}, {"type": "node", "id": 1673641387, "lat": 54.3979419, "lon": -6.4863936, "tags": {"shop": "butcher"}}, {"type": "node", "id": 1675126217, "lat": 51.4759416, "lon": -0.034582, "tags": {"name": "Abigobal butchers", "shop": "butcher"}}, {"type": "node", "id": 1680691142, "lat": 53.6103708, "lon": -1.7028777, "tags": {"shop": "butcher"}}, {"type": "node", "id": 1680713780, "lat": 53.3216314, "lon": -1.2605826, "tags": {"shop": "butcher"}}, {"type": "node", "id": 1682179179, "lat": 54.2143958, "lon": -5.8882167, "tags": {"shop": "butcher"}}, {"type": "node", "id": 1684553074, "lat": 53.2811998, "lon": -3.8296977, "tags": {"addr:city": "Conwy", "addr:country": "GB", "addr:housenumber": "18", "addr:postcode": "LL32 8DE", "addr:street": "High Street", "fhrs:authority": "Conwy", "fhrs:id": "56861", "fhrs:local_authority_id": "12868", "name": "Edwards of Conwy", "name:en": "Edwards of Conwy", "shop": "butcher"}}, {"type": "node", "id": 1684872308, "lat": 51.5709988, "lon": -1.7857412, "tags": {"name": "Brian Turner", "shop": "butcher"}}, {"type": "node", "id": 1685973538, "lat": 51.8763502, "lon": -2.1672483, "tags": {"name": "The Village Butcher", "shop": "butcher"}}, {"type": "node", "id": 1686072396, "lat": 50.9703269, "lon": -1.3369318, "tags": {"shop": "butcher"}}, {"type": "node", "id": 1689080402, "lat": 55.8364909, "lon": -4.2644641, "tags": {"name": "Country Shop", "shop": "butcher"}}, {"type": "node", "id": 1689095566, "lat": 55.8365873, "lon": -4.2643246, "tags": {"name": "Jeddah Food Store", "shop": "butcher"}}, {"type": "node", "id": 1692204998, "lat": 52.1275982, "lon": -0.2136802, "tags": {"shop": "butcher"}}, {"type": "node", "id": 1694092468, "lat": 53.2559739, "lon": -1.9140546, "tags": {"addr:housenumber": "1", "addr:postcode": "SK17 6EF", "addr:street": "Scarsdale Place", "name": "Arnold Mycock & Sons", "shop": "butcher"}}, {"type": "node", "id": 1694792576, "lat": 51.7467506, "lon": -1.1371215, "tags": {"name": "Cricks Butcher", "shop": "butcher"}}, {"type": "node", "id": 1697839072, "lat": 52.3735738, "lon": -1.7534866, "tags": {"name": "Dorridge Butcher", "shop": "butcher"}}, {"type": "node", "id": 1698708050, "lat": 53.2264722, "lon": -4.1256109, "tags": {"alt_name": "Johnny Sixpence", "name": "Williams & Son", "shop": "butcher"}}, {"type": "node", "id": 1702494896, "lat": 52.1909592, "lon": -1.7078384, "tags": {"name": "Barry The Butcher", "shop": "butcher"}}, {"type": "node", "id": 1704578694, "lat": 53.4037232, "lon": -1.5032102, "tags": {"name": "EW Pearson and Sons", "shop": "butcher"}}, {"type": "node", "id": 1704578696, "lat": 53.4040376, "lon": -1.5035885, "tags": {"name": "F Funks", "shop": "butcher"}}, {"type": "node", "id": 1704950928, "lat": 51.0529363, "lon": 0.2611978, "tags": {"shop": "butcher"}}, {"type": "node", "id": 1705220243, "lat": 55.886017, "lon": -2.1573586, "tags": {"shop": "butcher"}}, {"type": "node", "id": 1705228654, "lat": 55.8722185, "lon": -2.0889152, "tags": {"name": "RG Foreman & Son", "shop": "butcher"}}, {"type": "node", "id": 1705513063, "lat": 53.4038817, "lon": -1.5030116, "tags": {"name": "Mark Talbot", "shop": "butcher"}}, {"type": "node", "id": 1708475086, "lat": 53.5474864, "lon": -1.7789784, "tags": {"name": "J Brindon Addy's Butchers", "shop": "butcher", "website": "https://www.jbrindonaddy.co.uk/", "wheelchair": "yes"}}, {"type": "node", "id": 1708475116, "lat": 53.5467092, "lon": -1.7780295, "tags": {"name": "Turkey Farm", "shop": "butcher"}}, {"type": "node", "id": 1709914263, "lat": 51.8071593, "lon": -1.2205097, "tags": {"name": "Pegtop Beef", "shop": "butcher", "website": "http://www.pegtopfarm.co.uk/DEXTER-BEEF(2172456).htm"}}, {"type": "node", "id": 1711402441, "lat": 52.7097568, "lon": 1.5350816, "tags": {"name": "Ludham Butchers", "shop": "butcher"}}, {"type": "node", "id": 1711713258, "lat": 50.3955848, "lon": -3.5673002, "tags": {"addr:postcode": "TQ5 0NH", "name": "Savills", "shop": "butcher", "source:postcode": "ONS_Postcode_Directory"}}, {"type": "node", "id": 1713215940, "lat": 51.6205142, "lon": -3.9451468, "tags": {"addr:city": "Swansea", "addr:country": "GB", "addr:housenumber": "12", "addr:postcode": "SA1 3DH", "addr:street": "Portland Street", "fhrs:id": "62415", "name": "The Gower Butcher", "shop": "butcher"}}, {"type": "node", "id": 1715269646, "lat": 53.5475508, "lon": -1.7791931, "tags": {"addr:housename": "LambdaGeneration", "name": "Lamb Chop Generation", "shop": "butcher", "source": "LambdaGeneration", "website": "https://www.jbrindonaddy.co.uk/"}}, {"type": "node", "id": 1715618826, "lat": 54.5759572, "lon": -5.8962173, "tags": {"shop": "butcher"}}, {"type": "node", "id": 1716179867, "lat": 55.836294, "lon": -4.2637533, "tags": {"description": "Wholesale - meat, fruit, veg", "name": "Al-Madina Foodstore", "shop": "butcher"}}, {"type": "node", "id": 1716179873, "lat": 55.8357937, "lon": -4.2608586, "tags": {"butcher": "halal", "name": "Faisal Foodstore", "shop": "butcher"}}, {"type": "node", "id": 1716179882, "lat": 55.835722, "lon": -4.2605085, "tags": {"name": "Madni Halal Foods", "shop": "butcher"}}, {"type": "node", "id": 1716179883, "lat": 55.8358296, "lon": -4.2599901, "tags": {"name": "Nafees Halal Meat", "shop": "butcher", "source": "survey"}}, {"type": "node", "id": 1716291694, "lat": 54.544503, "lon": -1.9246235, "tags": {"name": "McFarlanes", "shop": "butcher"}}, {"type": "node", "id": 1716421060, "lat": 54.5806615, "lon": -1.8036662, "tags": {"name": "Fred Simpson & Son", "shop": "butcher"}}, {"type": "node", "id": 1716444018, "lat": 55.8347861, "lon": -4.2554481, "tags": {"addr:housenumber": "334", "addr:street": "Allison Street", "name": "GWS Wislon", "shop": "butcher", "source": "survey"}}, {"type": "node", "id": 1720363451, "lat": 54.8878934, "lon": -2.9398731, "tags": {"addr:street": "Denton St", "name": "Top Deal Meats", "shop": "butcher"}}, {"type": "node", "id": 1721067899, "lat": 50.9271642, "lon": -1.5537744, "tags": {"addr:city": "Southampton", "addr:housename": "James Farm", "addr:postcode": "SO40 2HJ", "addr:street": "Winsor Road", "name": "Alfords G A", "payment:cash": "yes", "phone": "+44 23 8021 2269", "shop": "butcher", "website": "https://www.facebook.com/AlfordButchers"}}, {"type": "node", "id": 1724295427, "lat": 50.62056, "lon": -3.4116686, "tags": {"addr:city": "Exmouth", "addr:housenumber": "2", "addr:postcode": "EX8 1PL", "addr:street": "Exeter Road", "name": "West Country Family Butchers", "shop": "butcher"}}, {"type": "node", "id": 1724296104, "lat": 50.6196492, "lon": -3.4119783, "tags": {"addr:housenumber": "22", "addr:street": "Chapel Street", "name": "Porky down", "shop": "butcher", "source": "local knowledge"}}, {"type": "node", "id": 1735176885, "lat": 52.491527, "lon": -2.0123707, "tags": {"shop": "butcher"}}, {"type": "node", "id": 1736555798, "lat": 54.8940246, "lon": -2.9544983, "tags": {"shop": "butcher"}}, {"type": "node", "id": 1738383072, "lat": 53.5502843, "lon": -0.6301687, "tags": {"name": "The Pink Pig Farm Shop", "shop": "butcher", "website": "www.pinkpigfarm.co.uk"}}, {"type": "node", "id": 1739482664, "lat": 54.9053492, "lon": -2.9374984, "tags": {"name": "Ben Stansfield", "shop": "butcher"}}, {"type": "node", "id": 1743133006, "lat": 50.874558, "lon": -4.4848118, "tags": {"name": "P.J & J Moore", "shop": "butcher"}}, {"type": "node", "id": 1743361394, "lat": 57.3350183, "lon": -2.3191371, "tags": {"addr:housenumber": "37", "addr:postcode": "AB51 0AA", "addr:street": "Market Square", "name": "Presley", "shop": "butcher"}}, {"type": "node", "id": 1748970356, "lat": 50.7324565, "lon": -3.4923835, "tags": {"addr:city": "Exeter", "addr:housenumber": "11", "addr:street": "Whipton Village Road", "name": "Roberts The Butcher", "shop": "butcher"}}, {"type": "node", "id": 1751651149, "lat": 51.6088724, "lon": -3.6591456, "tags": {"addr:postcode": "CF34 9BT", "name": "Andrews Family Butcher", "shop": "butcher"}}, {"type": "node", "id": 1757675886, "lat": 51.6819171, "lon": -4.1604627, "tags": {"shop": "butcher"}}, {"type": "node", "id": 1757692913, "lat": 51.6842386, "lon": -4.2499732, "tags": {"name": "Elgan Jones A'i Fab", "opening_hours": "Mo,We,Fr 08:30-17:00, Tu,Th 08:30-13:00", "shop": "butcher"}}, {"type": "node", "id": 1760848413, "lat": 50.4071323, "lon": -4.6696315, "tags": {"name": "Liddicoats", "shop": "butcher"}}, {"type": "node", "id": 1767741585, "lat": 53.115715, "lon": -2.6513427, "tags": {"addr:postcode": "CW6 9QR", "addr:street": "Bunbury Lane", "fhrs:id": "889812", "name": "RF Burrows & Sons", "shop": "butcher", "source:addr": "FHRS Open Data"}}, {"type": "node", "id": 1767754137, "lat": 50.3578503, "lon": -4.6924971, "tags": {"shop": "butcher"}}, {"type": "node", "id": 1775357226, "lat": 50.3396319, "lon": -4.7622646, "tags": {"shop": "butcher"}}, {"type": "node", "id": 1775362323, "lat": 50.339916, "lon": -4.757965, "tags": {"shop": "butcher"}}, {"type": "node", "id": 1776084688, "lat": 55.8833959, "lon": -4.2294382, "tags": {"name": "A Wier", "shop": "butcher"}}, {"type": "node", "id": 1777902870, "lat": 51.4516892, "lon": -0.0330494, "tags": {"addr:city": "London", "addr:housenumber": "1", "addr:postcode": "SE4 1AG", "addr:street": "Ewhurst Road", "name": "Proud Sow", "opening_hours": "Su-Mo off;Tu-Th 09:00-18:00;Fr 09:00-19:00;Sa 08:00-17:00", "phone": "+4420 8690 3320", "shop": "butcher", "website": "http://www.proudsow.co.uk"}}, {"type": "node", "id": 1780422475, "lat": 50.1848205, "lon": -5.0765662, "tags": {"shop": "butcher"}}, {"type": "node", "id": 1782807442, "lat": 51.7561579, "lon": -0.451643, "tags": {"shop": "butcher"}}, {"type": "node", "id": 1786249058, "lat": 53.9149194, "lon": -1.140499, "tags": {"addr:city": "York", "addr:housenumber": "8", "addr:postcode": "YO23 3SA", "addr:street": "Church Street", "addr:suburb": "Copmanthorpe", "fhrs:id": "245962", "name": "Swain Family Butcher", "shop": "butcher", "source": "survey", "source:addr": "FHRS Open Data"}}, {"type": "node", "id": 1788365531, "lat": 51.6444626, "lon": -0.8031289, "tags": {"addr:housename": "Tudor House", "addr:postcode": "HP14 3AE", "addr:street": "High Street", "fhrs:id": "576702", "name": "Tudor House", "shop": "butcher", "website": "http://www.rstrouttbutchers.co.uk/"}}, {"type": "node", "id": 1788979319, "lat": 56.0586096, "lon": -2.7183206, "tags": {"name": "Andersons", "shop": "butcher"}}, {"type": "node", "id": 1790247952, "lat": 53.2037901, "lon": -3.8471586, "tags": {"addr:city": "Conwy", "addr:country": "GB", "addr:housename": "Glandulyn Farm Butchers Shop", "addr:place": "Tal-y-Bont", "addr:postcode": "LL32 8YJ", "addr:street": "Llanrwst Road", "fhrs:authority": "Conwy", "fhrs:id": "60773", "fhrs:local_authority_id": "13285", "name": "T J Parry-Jones Butchers", "name:en": "T J Parry-Jones Butchers", "shop": "butcher"}}, {"type": "node", "id": 1794196705, "lat": 53.3723064, "lon": -1.5593054, "tags": {"shop": "butcher"}}, {"type": "node", "id": 1800593372, "lat": 52.2153432, "lon": 0.1689428, "tags": {"addr:city": "Cambridge", "addr:housenumber": "41", "addr:postcode": "CB5 8SR", "addr:street": "Ditton Lane", "name": "Cowlings", "phone": "+44 1223295314", "shop": "butcher", "website": "http://www.cowlingsbutchers.co.uk"}}, {"type": "node", "id": 1801567774, "lat": 51.1338684, "lon": 0.2638916, "tags": {"addr:housenumber": "94", "addr:postcode": "TN1 1RT", "addr:street": "Mount Pleasant Road", "fhrs:id": "18197", "name": "J.C. Rook & Sons", "shop": "butcher", "source:addr": "FHRS Open Data"}}, {"type": "node", "id": 1801569329, "lat": 50.9870723, "lon": -0.7389203, "tags": {"addr:postcode": "GU29 9DH", "addr:street": "North Street", "fhrs:id": "148663", "name": "Michael Courtney", "shop": "butcher", "source:addr": "FHRS Open Data", "website": "http://michaelcourtneybutchers.co.uk/"}}, {"type": "node", "id": 1801650258, "lat": 53.1063168, "lon": -2.0320807, "tags": {"name": "West Street Meats", "shop": "butcher"}}, {"type": "node", "id": 1801771310, "lat": 56.203373, "lon": -3.4210948, "tags": {"shop": "butcher"}}, {"type": "node", "id": 1802246150, "lat": 51.2768326, "lon": -0.4352295, "tags": {"name": "F. Conisbee & Son", "shop": "butcher"}}, {"type": "node", "id": 1805234860, "lat": 55.7691443, "lon": -2.0027093, "tags": {"name": "Berwick Butchers", "shop": "butcher"}}, {"type": "node", "id": 1818129801, "lat": 54.5588944, "lon": -0.791299, "tags": {"shop": "butcher"}}, {"type": "node", "id": 1822205331, "lat": 54.7703035, "lon": -1.7046138, "tags": {"name": "Castle Bank Butchers", "shop": "butcher"}}, {"type": "node", "id": 1829579712, "lat": 53.7126236, "lon": -2.7898674, "tags": {"name": "Walmer grove Farm Shop", "shop": "butcher"}}, {"type": "node", "id": 1836657097, "lat": 51.9059139, "lon": -0.4711609, "tags": {"shop": "butcher"}}, {"type": "node", "id": 1837559874, "lat": 54.9512754, "lon": -1.5958422, "tags": {"name": "Browns family butcher", "shop": "butcher"}}, {"type": "node", "id": 1841744032, "lat": 55.8199237, "lon": -3.8077771, "tags": {"name": "James Moffat", "shop": "butcher"}}, {"type": "node", "id": 1842014138, "lat": 51.6117819, "lon": -3.0287987, "tags": {"shop": "butcher"}}, {"type": "node", "id": 1853544364, "lat": 54.6987938, "lon": -1.6027262, "tags": {"addr:city": "Spennymoor", "addr:street": "High Street", "name": "N Hocking", "shop": "butcher", "source": "survey"}}, {"type": "node", "id": 1858798091, "lat": 51.7110818, "lon": -4.6993096, "tags": {"shop": "butcher", "toilets:wheelchair": "no", "wheelchair": "yes"}}, {"type": "node", "id": 1869045724, "lat": 52.1908666, "lon": -2.5091432, "tags": {"addr:city": "Bromyard", "addr:country": "GB", "addr:housename": "Erlam Place", "addr:postcode": "HR7 4LW", "addr:street": "Tenbury Road", "addr:unit": "3", "fhrs:authority": "Herefordshire", "fhrs:id": "488311", "name": "Legges", "opening_hours": "Mo-Fr 07:30-17:30; Sa 07:30-16:30", "phone": "+44 845 5441521", "shop": "butcher", "source": "survey", "source:addr": "FHRS Open Data", "website": "http://www.leggesofbromyard.com"}}, {"type": "node", "id": 1876684316, "lat": 51.5224147, "lon": -3.3916879, "tags": {"name": "John Hughes", "shop": "butcher"}}, {"type": "node", "id": 1881279280, "lat": 50.426402, "lon": -3.8346838, "tags": {"shop": "butcher"}}, {"type": "node", "id": 1888242885, "lat": 51.3994358, "lon": -1.4509913, "tags": {"addr:housenumber": "2", "addr:street": "Church Street", "name": "Mildenhall & Bullock", "shop": "butcher"}}, {"type": "node", "id": 1895612794, "lat": 51.5723762, "lon": -0.0723696, "tags": {"addr:city": "London", "addr:housenumber": "166", "addr:postcode": "N16 6QX", "addr:street": "Stamford Hill", "fhrs:authority": "Hackney", "fhrs:id": "469111", "fhrs:local_authority_id": "18243", "name": "Royal Meats", "shop": "butcher", "source:addr": "FHRS Open Data"}},