{"version": 0.6, "generator": "Overpass API 0.7.55.7 8b86ff77", "osm3s": {"timestamp_osm_base": "2019-07-09T15:38:02Z", "timestamp_areas_base": "2019-07-09T13:24:02Z", "copyright": "The data included in this document is from www.openstreetmap.org. The data is made available under ODbL."}, "elements": [{"type": "node", "id": 275811932, "lat": 52.7608112, "lon": -8.892738, "tags": {"addr:city": "Newmarket-on-Fergus", "addr:street": "Ballycar Road", "shop": "butcher"}}, {"type": "node", "id": 278733886, "lat": 52.4046547, "lon": -9.6168838, "tags": {"name": "J.J. Walshes", "shop": "butcher"}}, {"type": "node", "id": 281174465, "lat": 53.3431234, "lon": -6.2449524, "tags": {"email": "doylebros@iolfree.ie", "name": "Doyle Brothers", "shop": "butcher"}}, {"type": "node", "id": 299400325, "lat": 51.8782406, "lon": -8.430648, "tags": {"addr:city": "Douglas", "addr:street": "Douglas Court", "name": "Butcher's Block", "shop": "butcher"}}, {"type": "node", "id": 312566858, "lat": 53.3416706, "lon": -6.2269146, "tags": {"name": "Clyne's Master Butcher", "shop": "butcher"}}, {"type": "node", "id": 330960263, "lat": 52.9924898, "lon": -6.9817637, "tags": {"addr:housenumber": "18", "name": "Hyland Brothers", "shop": "butcher"}}, {"type": "node", "id": 335717500, "lat": 53.3811699, "lon": -6.5855803, "tags": {"name": "Coyne Family Butcher", "shop": "butcher"}}, {"type": "node", "id": 342206969, "lat": 53.7626582, "lon": -6.2721356, "tags": {"name": "McEvoy's", "shop": "butcher"}}, {"type": "node", "id": 348496983, "lat": 51.9125545, "lon": -8.4727667, "tags": {"created_by": "Potlatch 0.10f", "shop": "butcher"}}, {"type": "node", "id": 349313962, "lat": 51.8779927, "lon": -8.522839, "tags": {"name": "McCarthy's Meat Market", "shop": "butcher", "website": "http://mccarthysmeatmarket.ie"}}, {"type": "node", "id": 354880890, "lat": 53.3740052, "lon": -6.5878152, "tags": {"name": "Mulcahys", "shop": "butcher"}}, {"type": "node", "id": 387542980, "lat": 53.1200031, "lon": -9.6717226, "tags": {"shop": "butcher"}}, {"type": "node", "id": 409740229, "lat": 53.6635253, "lon": -6.6778168, "tags": {"name": "Walshe Butchers", "shop": "butcher"}}, {"type": "node", "id": 414031726, "lat": 51.8707707, "lon": -8.3352305, "tags": {"name": "Bertie's Butchers", "shop": "butcher"}}, {"type": "node", "id": 458220907, "lat": 53.2816493, "lon": -6.3404123, "tags": {"name": "Redmond's Butchers", "shop": "butcher"}}, {"type": "node", "id": 463710882, "lat": 53.2503771, "lon": -6.8404974, "tags": {"name": "Colm Coffey's", "phone": "+353 45 890844", "shop": "butcher"}}, {"type": "node", "id": 488567244, "lat": 52.9096253, "lon": -8.5324908, "tags": {"name": "Eric's Quality Meats", "shop": "butcher"}}, {"type": "node", "id": 488567254, "lat": 52.9100744, "lon": -8.531939, "tags": {"name": "Joey Kavanagh Family Butcher", "shop": "butcher"}}, {"type": "node", "id": 506725151, "lat": 52.3591343, "lon": -8.46841, "tags": {"shop": "butcher"}}, {"type": "node", "id": 506835403, "lat": 53.3436432, "lon": -6.5444401, "tags": {"name": "Fitzpatrick Butchers", "operator": "Fitzpatrick Butchers", "shop": "butcher"}}, {"type": "node", "id": 509434728, "lat": 52.991184, "lon": -6.9890954, "tags": {"addr:housenumber": "4", "name": "Greaney's", "shop": "butcher"}}, {"type": "node", "id": 538539585, "lat": 51.8954743, "lon": -8.4339054, "tags": {"name": "Cahills", "shop": "butcher"}}, {"type": "node", "id": 564413747, "lat": 53.3222429, "lon": -6.2658277, "tags": {"addr:city": "Dublin", "addr:country": "IE", "addr:housenumber": "213", "addr:postal_district": "D06", "addr:street": "Rathmines Road Lower", "name": "David Nolan", "shop": "butcher"}}, {"type": "node", "id": 564926478, "lat": 53.3163329, "lon": -6.2654123, "tags": {"addr:city": "Dublin 6", "addr:housenumber": "143,145", "addr:street": "Rathmines Road Upper", "name": "Lawlor's Butchers", "shop": "butcher"}}, {"type": "node", "id": 629026532, "lat": 53.3815969, "lon": -6.5949406, "tags": {"email": "info@cribbinfamilybutchers.ie", "fax": "01-6290789", "name": "Cribbins Butcher", "phone": "01-6290787", "shop": "butcher", "url": "www.cribbinfamilybutchers.ie"}}, {"type": "node", "id": 635247454, "lat": 53.3509259, "lon": -6.5459549, "tags": {"name": "Byrne's", "shop": "butcher"}}, {"type": "node", "id": 638364604, "lat": 53.4707947, "lon": -6.2320058, "tags": {"name": "Hannigans", "shop": "butcher"}}, {"type": "node", "id": 644007148, "lat": 53.3637686, "lon": -6.4902966, "tags": {"name": "Wakins Butcher", "shop": "butcher"}}, {"type": "node", "id": 660310485, "lat": 52.2502772, "lon": -7.1371273, "tags": {"FIXME": "name", "name": "... Humphy Family Butcher", "shop": "butcher"}}, {"type": "node", "id": 660310495, "lat": 52.2501809, "lon": -7.1367734, "tags": {"name": "Kiely's", "shop": "butcher"}}, {"type": "node", "id": 660310519, "lat": 52.2499927, "lon": -7.136137, "tags": {"name": "Billy Murphy", "shop": "butcher"}}, {"type": "node", "id": 662578501, "lat": 52.2055439, "lon": -7.4268946, "tags": {"name": "Riellys", "shop": "butcher"}}, {"type": "node", "id": 667993003, "lat": 52.8528303, "lon": -8.9836314, "tags": {"name": "Keane's Butcher", "shop": "butcher"}}, {"type": "node", "id": 667993013, "lat": 52.8606148, "lon": -8.9826316, "tags": {"name": "The Pet Supermarket", "shop": "butcher"}}, {"type": "node", "id": 683416449, "lat": 53.527165, "lon": -6.166354, "tags": {"name": "Howleys Family Butcher", "shop": "butcher"}}, {"type": "node", "id": 745996344, "lat": 53.210833, "lon": -6.6526017, "tags": {"name": "Butcher's Kitchen", "shop": "butcher"}}, {"type": "node", "id": 756916099, "lat": 52.2067165, "lon": -7.4229726, "tags": {"name": "Victualler Tom Halloran", "shop": "butcher", "wheelchair": "no"}}, {"type": "node", "id": 767267505, "lat": 51.9413252, "lon": -7.9936106, "tags": {"shop": "butcher"}}, {"type": "node", "id": 768231920, "lat": 53.3361262, "lon": -6.298757, "tags": {"name": "Ennis Butcher's", "shop": "butcher", "wheelchair": "yes"}}, {"type": "node", "id": 821881816, "lat": 51.9283853, "lon": -8.3908031, "tags": {"shop": "butcher"}}, {"type": "node", "id": 842804804, "lat": 52.8493801, "lon": -6.9789624, "tags": {"name": "Clonmore Meats", "shop": "butcher"}}, {"type": "node", "id": 863167580, "lat": 52.9125158, "lon": -7.3494143, "tags": {"name": "Andrew Sheil", "shop": "butcher", "wheelchair": "limited"}}, {"type": "node", "id": 864066766, "lat": 52.8455679, "lon": -8.9783776, "tags": {"name": "Don Gallery", "shop": "butcher"}}, {"type": "node", "id": 878495558, "lat": 53.3100637, "lon": -6.2836233, "tags": {"name": "O'Toole's", "organic": "only", "shop": "butcher"}}, {"type": "node", "id": 890724796, "lat": 53.3375389, "lon": -6.2936749, "tags": {"name": "C&C Family Butchers", "shop": "butcher", "wheelchair": "yes"}}, {"type": "node", "id": 899842968, "lat": 52.871746, "lon": -8.1966084, "tags": {"shop": "butcher"}}, {"type": "node", "id": 912419647, "lat": 52.3521785, "lon": -7.7063839, "tags": {"name": "Country Pork", "shop": "butcher"}}, {"type": "node", "id": 912470013, "lat": 52.3520796, "lon": -7.7076721, "tags": {"name": "Ryan Edmond and Sons", "shop": "butcher"}}, {"type": "node", "id": 919697106, "lat": 53.2761883, "lon": -9.0763625, "tags": {"fax": "091 589856", "name": "Martin Divilly's", "phone": "+353 91 523947", "shop": "butcher", "website": "www.martindivillybutchers.com"}}, {"type": "node", "id": 938675497, "lat": 52.7002807, "lon": -8.6013362, "tags": {"name": "Gaughan Butchers", "shop": "butcher"}}, {"type": "node", "id": 942746670, "lat": 52.8048419, "lon": -7.2102444, "tags": {"shop": "butcher"}}, {"type": "node", "id": 959243525, "lat": 53.2595022, "lon": -6.1974414, "tags": {"addr:street": "Ballyogan Avenue", "name": "O'Coileain", "shop": "butcher"}}, {"type": "node", "id": 979920581, "lat": 53.1754579, "lon": -6.8023819, "tags": {"name": "Sean Melia Butcher", "shop": "butcher"}}, {"type": "node", "id": 1056711326, "lat": 53.2893247, "lon": -6.2008221, "tags": {"addr:housenumber": "6", "addr:street": "Stillorgan Village", "name": "Fenlons", "opening_hours": "Mo-We 08:30-18:00; Th-Fr 08:30-19:00; Sa 08:30-18:00; Su 11:30-17:00", "phone": "+353-1-288-1185", "shop": "butcher", "website": "http://fenelons.ie/", "wheelchair": "yes"}}, {"type": "node", "id": 1083326255, "lat": 54.266917, "lon": -8.495516, "tags": {"name": "Eamons Meats", "shop": "butcher"}}, {"type": "node", "id": 1107684880, "lat": 53.3110162, "lon": -6.6089155, "tags": {"name": "O'Rurkes Butcher", "shop": "butcher"}}, {"type": "node", "id": 1128909431, "lat": 53.2923556, "lon": -6.6870003, "tags": {"name": "Tom Gough and Sons", "shop": "butcher"}}, {"type": "node", "id": 1166686373, "lat": 52.6686693, "lon": -8.6538943, "tags": {"name": "Ger Craughan", "shop": "butcher", "source": "survey"}}, {"type": "node", "id": 1184155983, "lat": 52.8130466, "lon": -8.437067, "tags": {"addr:city": "Ballina", "addr:country": "IE", "addr:province": "Munster", "addr:street": "Derg Court", "name": "Kavanaghs Butchers", "place_county": "Tipperary", "shop": "butcher"}}, {"type": "node", "id": 1199380367, "lat": 53.1807437, "lon": -6.7989517, "tags": {"addr:city": "Newbridge", "addr:country": "IE", "addr:county": "Kildare", "addr:street": "Charlotte Street", "name": "Malones Foodhall", "shop": "butcher"}}, {"type": "node", "id": 1224425343, "lat": 53.5107611, "lon": -6.5398289, "tags": {"name": "Mahon Butchers", "shop": "butcher"}}, {"type": "node", "id": 1251966479, "lat": 52.9552473, "lon": -7.7982016, "tags": {"name": "R Tormey", "shop": "butcher"}}, {"type": "node", "id": 1251978708, "lat": 52.9545499, "lon": -7.7993778, "tags": {"name": "PJ Aherne Victualers", "shop": "butcher"}}, {"type": "node", "id": 1251978712, "lat": 52.9552917, "lon": -7.7990744, "tags": {"name": "Loughnane", "shop": "butcher"}}, {"type": "node", "id": 1251978718, "lat": 52.9551931, "lon": -7.7993376, "tags": {"name": "Egans", "shop": "butcher"}}, {"type": "node", "id": 1257321515, "lat": 53.1987078, "lon": -8.5674813, "tags": {"name": "Pat Loughnane & Sons", "shop": "butcher", "source": "survey"}}, {"type": "node", "id": 1258370757, "lat": 52.9429087, "lon": -8.0390033, "tags": {"name": "B.C. Williams", "shop": "butcher", "source": "survey"}}, {"type": "node", "id": 1276229117, "lat": 53.1781173, "lon": -6.8011707, "tags": {"addr:city": "Newbridge", "addr:country": "IE", "addr:county": "Kildare", "addr:street": "Moorfield Road", "name": "Max's Butchers", "shop": "butcher"}}, {"type": "node", "id": 1279160996, "lat": 54.9462124, "lon": -7.7404366, "tags": {"addr:street": "Oldtown Road", "name": "Shiel's Butchers", "shop": "butcher"}}, {"type": "node", "id": 1295137475, "lat": 54.9487843, "lon": -7.733693, "tags": {"addr:city": "Letterkenny", "addr:street": "Pearse Road", "name": "Swilly Meats", "shop": "butcher"}}, {"type": "node", "id": 1301265299, "lat": 52.8622673, "lon": -8.1989857, "tags": {"addr:city": "Nenagh", "addr:country": "IE", "addr:housenumber": "14", "addr:street": "Kenyon Street", "name": "Hanlon's", "shop": "butcher", "wheelchair": "yes"}}, {"type": "node", "id": 1316646525, "lat": 53.3020245, "lon": -6.2448417, "tags": {"name": "Michael Lynch Craft Butcher", "shop": "butcher"}}, {"type": "node", "id": 1334703458, "lat": 52.6674625, "lon": -8.5527289, "tags": {"name": "Flavins Butchers", "shop": "butcher"}}, {"type": "node", "id": 1349210721, "lat": 52.4708682, "lon": -8.4325323, "tags": {"name": "Pa Sheehy", "shop": "butcher"}}, {"type": "node", "id": 1361340486, "lat": 53.3351116, "lon": -6.2649738, "tags": {"addr:city": "Dublin", "addr:housenumber": "22", "addr:street": "Camden Street Lower", "name": "Frank's Pork Shop", "shop": "butcher"}}, {"type": "node", "id": 1412419664, "lat": 53.3425951, "lon": -6.2792817, "tags": {"name": "Dunnes", "shop": "butcher"}}, {"type": "node", "id": 1412419704, "lat": 53.3417221, "lon": -6.2789815, "tags": {"addr:housenumber": "18", "addr:street": "Meath Street", "name": "Larkin Bros.", "shop": "butcher"}}, {"type": "node", "id": 1423985043, "lat": 52.2320126, "lon": -9.4620669, "tags": {"shop": "butcher"}}, {"type": "node", "id": 1445758305, "lat": 53.990927, "lon": -8.0653089, "tags": {"name": "Gibbons", "shop": "butcher"}}, {"type": "node", "id": 1445781342, "lat": 53.9449413, "lon": -8.0952527, "tags": {"name": "D Boyd", "shop": "butcher"}}, {"type": "node", "id": 1469729119, "lat": 53.6726244, "lon": -7.988979, "tags": {"addr:street": "Main Street", "name": "Terrys Butcher", "shop": "butcher"}}, {"type": "node", "id": 1473450248, "lat": 53.3427486, "lon": -6.2794724, "tags": {"name": "Thomas meats", "shop": "butcher"}}, {"type": "node", "id": 1473487746, "lat": 53.3426843, "lon": -6.2787519, "tags": {"name": "Fays", "shop": "butcher"}}, {"type": "node", "id": 1473502331, "lat": 53.342084, "lon": -6.279169, "tags": {"addr:housenumber": "8", "addr:street": "Meath Street", "name": "C&N Meats", "shop": "butcher"}}, {"type": "node", "id": 1499228165, "lat": 52.6488967, "lon": -8.6368525, "tags": {"name": "Flavin", "shop": "butcher"}}, {"type": "node", "id": 1500501202, "lat": 53.3158815, "lon": -6.3168488, "tags": {"addr:street": "Whitehall Road West", "name": "Keogh's Butchers", "shop": "butcher"}}, {"type": "node", "id": 1513102925, "lat": 53.3382314, "lon": -6.4007137, "tags": {"shop": "butcher"}}, {"type": "node", "id": 1540781089, "lat": 53.4349575, "lon": -6.1305243, "tags": {"name": "Tony Higgins", "shop": "butcher"}}, {"type": "node", "id": 1554850291, "lat": 53.9005362, "lon": -8.5829617, "tags": {"shop": "butcher"}}, {"type": "node", "id": 1554850292, "lat": 53.9009132, "lon": -8.5809758, "tags": {"name": "Regan's Butchers", "shop": "butcher"}}, {"type": "node", "id": 1554850311, "lat": 53.9010333, "lon": -8.5812547, "tags": {"name": "Cunniffes Butchers", "shop": "butcher"}}, {"type": "node", "id": 1558721338, "lat": 53.3711781, "lon": -6.4875941, "tags": {"name": "Leixlip Butchers", "shop": "butcher"}}, {"type": "node", "id": 1563623744, "lat": 53.5677046, "lon": -6.3829233, "tags": {"name": "Branagan's Craft Butchers", "shop": "butcher"}}, {"type": "node", "id": 1572838639, "lat": 51.8856776, "lon": -8.5000705, "tags": {"name": "Nugent's", "shop": "butcher"}}, {"type": "node", "id": 1591455622, "lat": 51.5268678, "lon": -9.5463864, "tags": {"name": "Paddy Hegarty", "shop": "butcher"}}, {"type": "node", "id": 1597765014, "lat": 51.9045542, "lon": -8.4580986, "tags": {"shop": "butcher"}}, {"type": "node", "id": 1600661052, "lat": 53.2952621, "lon": -7.2922787, "tags": {"name": "Mooneys", "shop": "butcher"}}, {"type": "node", "id": 1609219934, "lat": 53.3426582, "lon": -7.6142198, "tags": {"name": "Peter Dunican", "shop": "butcher"}}, {"type": "node", "id": 1622874544, "lat": 55.2948274, "lon": -7.2625305, "tags": {"name": "Boggs", "shop": "butcher"}}, {"type": "node", "id": 1669971442, "lat": 53.3323327, "lon": -6.2748977, "tags": {"addr:city": "Dublin 8", "addr:housenumber": "112", "addr:street": "South Circular Road", "name": "Ennis Butchers", "old_name": "Peakins", "shop": "butcher"}}, {"type": "node", "id": 1676709603, "lat": 53.6526657, "lon": -6.6857896, "tags": {"name": "David's", "shop": "butcher"}}, {"type": "node", "id": 1686388539, "lat": 52.7387246, "lon": -6.7698582, "tags": {"name": "Macassy", "shop": "butcher"}}, {"type": "node", "id": 1707504718, "lat": 52.9994001, "lon": -8.1291028, "tags": {"name": "Darcy Wholesale Meats", "shop": "butcher"}}, {"type": "node", "id": 1707670470, "lat": 52.1412551, "lon": -10.2693147, "tags": {"name": "Jerry Kennedy", "shop": "butcher"}}, {"type": "node", "id": 1712114849, "lat": 53.3502629, "lon": -6.2579722, "tags": {"name": "FX Buckley", "shop": "butcher", "wheelchair": "yes"}}, {"type": "node", "id": 1722820753, "lat": 53.6525799, "lon": -6.6833343, "tags": {"name": "Sean McGrane", "shop": "butcher"}}, {"type": "node", "id": 1729163821, "lat": 53.2729179, "lon": -9.054277, "tags": {"name": "Herterich's", "shop": "butcher"}}, {"type": "node", "id": 1730948455, "lat": 53.2854911, "lon": -9.0176842, "tags": {"name": "McGraths Butcher", "shop": "butcher"}}, {"type": "node", "id": 1740197553, "lat": 53.3358525, "lon": -6.2843689, "tags": {"name": "Donore Meats", "shop": "butcher"}}, {"type": "node", "id": 1768112943, "lat": 52.5907858, "lon": -6.5010296, "tags": {"name": "T. Cahill Craft Butcher", "shop": "butcher"}}, {"type": "node", "id": 1809978654, "lat": 53.4877315, "lon": -10.0209313, "tags": {"name": "Mannion's Butcher", "shop": "butcher"}}, {"type": "node", "id": 1813929455, "lat": 53.6177753, "lon": -8.7441661, "tags": {"name": "Mark's Meats", "shop": "butcher"}}, {"type": "node", "id": 1824060138, "lat": 53.6131408, "lon": -6.2057564, "tags": {"name": "Castle Mill Butchers", "shop": "butcher"}}, {"type": "node", "id": 1857044348, "lat": 55.13678, "lon": -8.1024197, "tags": {"shop": "butcher"}}, {"type": "node", "id": 1861546807, "lat": 53.2721925, "lon": -9.0540033, "tags": {"name": "John E Colleran and Sons", "shop": "butcher"}}, {"type": "node", "id": 1866489776, "lat": 53.2057055, "lon": -6.1110511, "tags": {"shop": "butcher"}}, {"type": "node", "id": 1925700613, "lat": 55.1890101, "lon": -7.040753, "tags": {"building": "shop", "name": "Donal McCauley Butchers", "shop": "butcher"}}, {"type": "node", "id": 1930579571, "lat": 53.3211875, "lon": -6.2349216, "tags": {"addr:street": "Donnybrook Road", "name": "Donnybrook Butchers (Closed)", "shop": "butcher"}}, {"type": "node", "id": 1937884724, "lat": 54.0149637, "lon": -7.528813, "tags": {"name": "Richardsons's", "shop": "butcher"}}, {"type": "node", "id": 1944807590, "lat": 52.2703018, "lon": -8.1023099, "tags": {"name": "Fitzgerald", "shop": "butcher"}}, {"type": "node", "id": 1947468213, "lat": 53.4214194, "lon": -6.1369418, "tags": {"name": "JW Smiths Butcher", "shop": "butcher"}}, {"type": "node", "id": 1959322189, "lat": 53.1264075, "lon": -6.9575851, "tags": {"name": "Kildare Farm Foods", "shop": "butcher", "website": "https://www.kildarefarmfoods.com/"}}, {"type": "node", "id": 1988647585, "lat": 53.374461, "lon": -8.7048549, "tags": {"name": "Monivea Butchers", "shop": "butcher"}}, {"type": "node", "id": 1992577366, "lat": 54.0877038, "lon": -8.5153084, "tags": {"addr:city": "Ballymote", "addr:country": "IE", "addr:street": "Grattan Street", "name": "Gallaghers", "shop": "butcher"}}, {"type": "node", "id": 1994600091, "lat": 52.9120382, "lon": -6.8383625, "tags": {"name": "O'Gorman Meats", "shop": "butcher"}}, {"type": "node", "id": 2072767496, "lat": 52.6519735, "lon": -8.3986752, "tags": {"shop": "butcher", "wheelchair": "yes"}}, {"type": "node", "id": 2088704792, "lat": 52.1361495, "lon": -8.6424177, "tags": {"addr:housenumber": "66", "addr:street": "Davis Street", "name": "Sheehan's Family Butchers", "shop": "butcher"}}, {"type": "node", "id": 2089577727, "lat": 52.1371644, "lon": -8.6446702, "tags": {"addr:housenumber": "41", "addr:street": "Davis Street", "name": "The Meat Centre", "shop": "butcher"}}, {"type": "node", "id": 2102030270, "lat": 53.2849545, "lon": -9.0444977, "tags": {"name": "The Meat Market", "shop": "butcher"}}, {"type": "node", "id": 2112294045, "lat": 54.8009169, "lon": -7.5922261, "tags": {"shop": "butcher"}}, {"type": "node", "id": 2131284020, "lat": 53.1893034, "lon": -6.1228442, "tags": {"name": "Family Butcher", "shop": "butcher"}}, {"type": "node", "id": 2134155281, "lat": 53.612423, "lon": -7.0917928, "tags": {"name": "Lenihan's", "shop": "butcher"}}, {"type": "node", "id": 2149770919, "lat": 53.9810957, "lon": -9.1147961, "tags": {"name": "Quinns", "shop": "butcher"}}, {"type": "node", "id": 2165112598, "lat": 51.8278246, "lon": -10.1719343, "tags": {"name": "Scariff Meats", "shop": "butcher"}}, {"type": "node", "id": 2177504973, "lat": 52.6599029, "lon": -8.6251336, "tags": {"name": "Cusack Meats", "shop": "butcher"}}, {"type": "node", "id": 2217794812, "lat": 54.1000702, "lon": -9.3199923, "tags": {"shop": "butcher"}}, {"type": "node", "id": 2217794823, "lat": 54.0999354, "lon": -9.3189383, "tags": {"name": "N Tolan's Butchers", "shop": "butcher"}}, {"type": "node", "id": 2238212945, "lat": 55.139912, "lon": -8.170401, "tags": {"shop": "butcher"}}, {"type": "node", "id": 2293593219, "lat": 54.270379, "lon": -8.4755804, "tags": {"addr:city": "Sligo", "addr:street": "John Street", "name": "Monaghans", "shop": "butcher"}}, {"type": "node", "id": 2298361020, "lat": 53.2995544, "lon": -6.3797314, "tags": {"addr:housename": "The Rise", "addr:street": "The Rise,Belgard heights", "name": "Reinhardt's Finest Quality Meats", "shop": "butcher"}}, {"type": "node", "id": 2370676334, "lat": 53.2649459, "lon": -6.2293927, "tags": {"addr:housenumber": "2A", "addr:place": "Lambs Cross", "name": "Colm Levey", "shop": "butcher"}}, {"type": "node", "id": 2396152605, "lat": 53.3235312, "lon": -6.2506684, "tags": {"name": "Village Butcher", "shop": "butcher"}}, {"type": "node", "id": 2400789784, "lat": 55.1831952, "lon": -7.972252, "tags": {"name": "Corner Butcher", "shop": "butcher"}}, {"type": "node", "id": 2405703095, "lat": 53.3368847, "lon": -6.2656838, "tags": {"addr:housenumber": "29", "addr:street": "Wexford Street", "name": "Hogans Butchers", "shop": "butcher"}}, {"type": "node", "id": 2406308685, "lat": 52.0630566, "lon": -9.4966583, "tags": {"name": "Family Butchers", "shop": "butcher"}}, {"type": "node", "id": 2415399095, "lat": 52.4637774, "lon": -8.3487175, "tags": {"shop": "butcher"}}, {"type": "node", "id": 2458236703, "lat": 54.0085566, "lon": -6.4025635, "tags": {"addr:city": "Dundalk", "addr:housenumber": "33", "addr:street": "Church Street", "name": "Mc Cormick's Pork Butchers", "shop": "butcher"}}, {"type": "node", "id": 2471541169, "lat": 53.9715768, "lon": -8.3030684, "tags": {"addr:city": "Boyle", "addr:street": "Bridge Street", "name": "Eamon Coogan", "shop": "butcher"}}, {"type": "node", "id": 2471644908, "lat": 53.972576, "lon": -8.3045519, "tags": {"name": "P.McGrath", "shop": "butcher"}}, {"type": "node", "id": 2493601493, "lat": 52.6511363, "lon": -7.2530202, "tags": {"addr:street": "Friary Street", "name": "P. Kenna", "shop": "butcher"}}, {"type": "node", "id": 2531730318, "lat": 53.8495399, "lon": -8.9992668, "tags": {"name": "Byrne's Meats", "shop": "butcher"}}, {"type": "node", "id": 2551761818, "lat": 53.8516225, "lon": -8.9973922, "tags": {"name": "John Shannon Meats", "shop": "butcher"}}, {"type": "node", "id": 2557549888, "lat": 54.0401045, "lon": -6.1873869, "tags": {"name": "Des Savage butchers", "shop": "butcher"}}, {"type": "node", "id": 2610101126, "lat": 54.2492059, "lon": -8.8772036, "tags": {"shop": "butcher"}}, {"type": "node", "id": 2610803950, "lat": 53.3416841, "lon": -6.352846, "tags": {"name": "Ballyfermot Craft Butchers", "shop": "butcher"}}, {"type": "node", "id": 2611464691, "lat": 54.2705932, "lon": -8.4744961, "tags": {"name": "Clarkes", "shop": "butcher"}}, {"type": "node", "id": 2619150997, "lat": 52.6411364, "lon": -7.2465019, "tags": {"shop": "butcher"}}, {"type": "node", "id": 2625611157, "lat": 51.8977838, "lon": -8.473986, "tags": {"butcher": "poultry", "shop": "butcher"}}, {"type": "node", "id": 2625611159, "lat": 51.8978568, "lon": -8.4742464, "tags": {"shop": "butcher"}}, {"type": "node", "id": 2625611163, "lat": 51.8978805, "lon": -8.4738412, "tags": {"shop": "butcher"}}, {"type": "node", "id": 2657344733, "lat": 53.998179, "lon": -6.4045029, "tags": {"level": "0", "name": "Joe Traynor Ltd.", "shop": "butcher"}}, {"type": "node", "id": 2696984124, "lat": 54.0004195, "lon": -6.3977229, "tags": {"level": "0", "shop": "butcher"}}, {"type": "node", "id": 2698096852, "lat": 53.2208514, "lon": -6.9932452, "tags": {"shop": "butcher"}}, {"type": "node", "id": 2717809553, "lat": 53.3994873, "lon": -6.6681581, "tags": {"name": "John Ryan", "shop": "butcher"}}, {"type": "node", "id": 2717855017, "lat": 53.4025327, "lon": -6.6707352, "tags": {"name": "NB Meats", "shop": "butcher"}}, {"type": "node", "id": 2717912987, "lat": 53.3979047, "lon": -6.6707603, "tags": {"name": "Mick the Butcher", "shop": "butcher"}}, {"type": "node", "id": 2752166307, "lat": 51.9118805, "lon": -8.0547322, "tags": {"addr:city": "Castlemartyr", "addr:street": "Main Street", "name": "Clifford's", "shop": "butcher"}}, {"type": "node", "id": 2777265572, "lat": 53.0925561, "lon": -7.1727033, "tags": {"FIXME": "To which building does this belong?", "name": "The Buther's Stop", "shop": "butcher"}}, {"type": "node", "id": 2777365760, "lat": 53.1575756, "lon": -7.1857024, "tags": {"shop": "butcher"}}, {"type": "node", "id": 2807396167, "lat": 55.0938701, "lon": -7.5400622, "tags": {"name": "Patrick Patton & Sons", "shop": "butcher"}}, {"type": "node", "id": 2885644007, "lat": 53.312559, "lon": -6.2739407, "tags": {"addr:housenumber": "99c", "addr:street": "Rathgar Road", "name": "John Byrne & Sons", "shop": "butcher"}}, {"type": "node", "id": 2894521242, "lat": 53.2739618, "lon": -7.4975522, "tags": {"name": "Crossan's", "shop": "butcher"}}, {"type": "node", "id": 2918993788, "lat": 53.8555759, "lon": -9.3011984, "tags": {"name": "Hopkins", "shop": "butcher"}}, {"type": "node", "id": 2928039480, "lat": 53.2810794, "lon": -9.0645948, "tags": {"name": "Matt's Sandwiches", "shop": "butcher", "takeaway": "yes", "website": "mattssandwiches.ie"}}, {"type": "node", "id": 2940556705, "lat": 53.3559035, "lon": -6.2869101, "tags": {"addr:housename": "Park Shopping Centre", "addr:housenumber": "6", "addr:street": "Prussia Street", "name": "Buffy's Butchers", "shop": "butcher"}}, {"type": "node", "id": 2940666222, "lat": 53.3505846, "lon": -6.2821579, "tags": {"shop": "butcher"}}, {"type": "node", "id": 2985046880, "lat": 52.6984068, "lon": -8.7617468, "tags": {"name": "O'Brien's Family Butchers", "shop": "butcher"}}, {"type": "node", "id": 2988567849, "lat": 54.0065564, "lon": -6.4051795, "tags": {"name": "MICHAEL WHITE & SONS", "shop": "butcher"}}, {"type": "node", "id": 2988931461, "lat": 53.3207297, "lon": -6.2922963, "tags": {"addr:housenumber": "39", "addr:postal_district": "D12", "addr:street": "Sundrive Road", "name": "Paul's Family Butchers", "shop": "butcher"}}, {"type": "node", "id": 2991107249, "lat": 53.327365, "lon": -6.3046572, "tags": {"addr:city": "Dublin", "addr:street": "Old County Road", "name": "Brown's Family Butchers", "shop": "butcher"}}, {"type": "node", "id": 2991107253, "lat": 53.3273461, "lon": -6.3048807, "tags": {"addr:city": "Dublin", "addr:street": "Old County Road", "name": "County Meats", "phone": "+353 1 454 2820", "shop": "butcher"}}, {"type": "node", "id": 2993101564, "lat": 53.3342566, "lon": -6.3196672, "tags": {"shop": "butcher"}}, {"type": "node", "id": 2993765033, "lat": 54.0051833, "lon": -6.4027221, "tags": {"shop": "butcher"}}, {"type": "node", "id": 2995287588, "lat": 53.3203923, "lon": -6.3165144, "tags": {"addr:city": "Dublin 12", "addr:housenumber": "4", "addr:street": "Saint Agnes Road", "name": "Brendan's Of Crumlin", "opening_hours": "Mo-Sa 08:00-17:30", "phone": "+353 1 4551687", "shop": "butcher", "website": "http://www.brendansbutchers.com/"}}, {"type": "node", "id": 2998406179, "lat": 53.3827013, "lon": -6.2768386, "tags": {"addr:city": "Dublin 11", "addr:street": "Fitzmaurice Avenue", "name": "Corrigans Butchers", "shop": "butcher"}}, {"type": "node", "id": 3004207094, "lat": 53.4865577, "lon": -6.1487745, "tags": {"addr:housename": "Donabate Town Centre", "addr:street": "Main Street", "name": "Donabate Village Butchers", "shop": "butcher"}}, {"type": "node", "id": 3019001406, "lat": 53.763158, "lon": -9.8093607, "tags": {"shop": "butcher"}}, {"type": "node", "id": 3022570054, "lat": 54.3036858, "lon": -8.175783, "tags": {"shop": "butcher"}}, {"type": "node", "id": 3026189613, "lat": 51.897628, "lon": -8.4745421, "tags": {"name": "Meat Center", "shop": "butcher"}}, {"type": "node", "id": 3039675540, "lat": 53.3121157, "lon": -6.2744338, "tags": {"addr:city": "Dublin", "addr:housenumber": "107", "addr:street": "Rathgar Road", "name": "Donovans of Rathgar", "shop": "butcher"}}, {"type": "node", "id": 3049593249, "lat": 53.4231996, "lon": -7.9361547, "tags": {"shop": "butcher"}}, {"type": "node", "id": 3049892502, "lat": 52.5007457, "lon": -6.5689821, "tags": {"shop": "butcher"}}, {"type": "node", "id": 3058665088, "lat": 53.3615688, "lon": -6.2730881, "tags": {"addr:city": "Dublin", "addr:street": "Phibsboro Shopping Centre", "name": "Mitton Butchers", "shop": "butcher"}}, {"type": "node", "id": 3076499241, "lat": 53.679314, "lon": -7.2928648, "tags": {"name": "Simon's Craft Butcher", "shop": "butcher"}}, {"type": "node", "id": 3077675595, "lat": 53.3259008, "lon": -6.3215185, "tags": {"addr:housenumber": "18", "addr:street": "Errigal Road", "name": "Burkes The Butchers", "shop": "butcher"}}, {"type": "node", "id": 3095771584, "lat": 53.5244786, "lon": -7.3459561, "tags": {"name": "Scally's Family Butcher", "shop": "butcher", "source": "survey"}}, {"type": "node", "id": 3101457591, "lat": 54.0065596, "lon": -6.4050723, "tags": {"name": "McCORMICKS", "shop": "butcher"}}, {"type": "node", "id": 3104886052, "lat": 53.3099042, "lon": -6.2829164, "tags": {"addr:city": "Dublin 6", "addr:housenumber": "97", "addr:street": "Terenure Road East", "name": "J. Downey & Son", "opening_hours": "Mo-Tu 08:30-17:30, We 08:30-13:00, Th-Sa 08:30-17:30", "phone": "+353 1 4909239", "shop": "butcher", "website": "http://www.organicfoodsireland.com/"}}, {"type": "node", "id": 3107171972, "lat": 54.112748, "lon": -9.1557865, "tags": {"name": "Curry's", "shop": "butcher"}}, {"type": "node", "id": 3112540749, "lat": 53.996697, "lon": -6.4032296, "tags": {"shop": "butcher"}}, {"type": "node", "id": 3126035955, "lat": 53.3906724, "lon": -6.2866392, "tags": {"addr:street": "Glasnevin Avenue", "name": "Brian's Family Butchers", "shop": "butcher"}}, {"type": "node", "id": 3127806748, "lat": 53.5249513, "lon": -7.3412425, "tags": {"name": "Tynan's", "shop": "butcher", "source": "survey"}}, {"type": "node", "id": 3142939587, "lat": 53.3545082, "lon": -6.2500854, "tags": {"addr:city": "Dublin", "addr:street": "Buckingham Street Upper", "name": "Gloyd's Family Butchers", "shop": "butcher"}}, {"type": "node", "id": 3174849171, "lat": 52.5667482, "lon": -7.6730175, "tags": {"name": "Dwyers", "opening_hours": "09:00-18:00", "shop": "butcher"}}, {"type": "node", "id": 3233585897, "lat": 53.4026443, "lon": -6.3989219, "tags": {"name": "Village meats", "shop": "butcher"}}, {"type": "node", "id": 3259885863, "lat": 53.7642022, "lon": -8.7674902, "tags": {"name": "E. J. Phillips", "shop": "butcher"}}, {"type": "node", "id": 3259901766, "lat": 53.7597646, "lon": -8.7692412, "tags": {"butcher": "halal", "halal": "yes", "name": "The Premium Butcher", "shop": "butcher"}}, {"type": "node", "id": 3338034889, "lat": 51.7645894, "lon": -8.6560358, "tags": {"name": "The Village Butcher", "shop": "butcher"}}, {"type": "node", "id": 3366687780, "lat": 53.6285632, "lon": -6.2618821, "tags": {"name": "Shane M. Curran", "shop": "butcher"}}, {"type": "node", "id": 3381250645, "lat": 52.1382975, "lon": -10.2697673, "tags": {"name": "Paid\u00ed Moriarty's Butcher", "shop": "butcher"}}, {"type": "node", "id": 3397131281, "lat": 53.5545067, "lon": -6.7935297, "tags": {"name": "M. Coogan Butchers", "shop": "butcher"}}, {"type": "node", "id": 3397131284, "lat": 53.5552173, "lon": -6.7931596, "tags": {"name": "Eugene Kiely's Butchers", "shop": "butcher"}}, {"type": "node", "id": 3658416408, "lat": 52.662817, "lon": -8.6256007, "tags": {"name": "O' Connell's", "shop": "butcher"}}, {"type": "node", "id": 3680296596, "lat": 53.3235708, "lon": -6.264658, "tags": {"addr:city": "Dublin", "addr:housename": "Swan Centre", "addr:street": "Rathmines Road Lower", "name": "Dowling's Butchers", "shop": "butcher"}}, {"type": "node", "id": 3684574463, "lat": 52.488327, "lon": -9.575916, "tags": {"shop": "butcher"}}, {"type": "node", "id": 3703279059, "lat": 53.2779898, "lon": -6.1632849, "tags": {"addr:city": "Deansgrange", "addr:street": "Clonkeen Road", "name": "F.X. Buckley", "shop": "butcher"}}, {"type": "node", "id": 3718810810, "lat": 54.2855523, "lon": -8.9600723, "tags": {"shop": "butcher"}}, {"type": "node", "id": 3740250975, "lat": 53.3009126, "lon": -6.1785023, "tags": {"name": "Asian Foods Butchers", "shop": "butcher", "wheelchair": "yes"}}, {"type": "node", "id": 3779499140, "lat": 53.328561, "lon": -8.2026053, "tags": {"addr:city": "Creagh", "addr:street": "Church Street", "name": "Connelly's Butchers", "opening_hours": "09:00-18:00", "shop": "butcher"}}, {"type": "node", "id": 3780227763, "lat": 53.3669565, "lon": -6.2928041, "tags": {"addr:housenumber": "24", "addr:street": "Fassaugh Avenue", "name": "Clarkes Family Butchers", "shop": "butcher"}}, {"type": "node", "id": 3780264957, "lat": 53.3671104, "lon": -6.2938013, "tags": {"addr:street": "Fassaugh Avenue", "name": "Supreme Meats", "shop": "butcher"}}, {"type": "node", "id": 3780264958, "lat": 53.3671151, "lon": -6.2938577, "tags": {"addr:street": "Fassaugh Avenue", "name": "Muldoons Fresh Fish & Poultry", "shop": "butcher"}}, {"type": "node", "id": 3915277363, "lat": 52.4546484, "lon": -9.0471325, "tags": {"name": "McMahon Masterbutchers", "phone": "+353-69-66030", "shop": "butcher"}}, {"type": "node", "id": 3917011311, "lat": 52.4508753, "lon": -9.0603299, "tags": {"shop": "butcher"}}, {"type": "node", "id": 3929625754, "lat": 53.488775, "lon": -10.0213977, "tags": {"name": "Des Moran", "shop": "butcher"}}, {"type": "node", "id": 3929701384, "lat": 53.4877119, "lon": -10.0205601, "tags": {"name": "Johnny Conneely", "shop": "butcher"}}, {"type": "node", "id": 3935996823, "lat": 52.7137419, "lon": -8.5007857, "tags": {"name": "McDermott's Butchers", "shop": "butcher"}}, {"type": "node", "id": 3962227912, "lat": 51.8853852, "lon": -8.4868407, "tags": {"shop": "butcher"}}, {"type": "node", "id": 3995767600, "lat": 53.8343517, "lon": -7.080983, "tags": {"name": "M McEnaney Butchers", "phone": "+353-49-854-7067", "shop": "butcher"}}, {"type": "node", "id": 4000935308, "lat": 55.0265362, "lon": -7.7722156, "tags": {"name": "Millbridge Meats", "shop": "butcher"}}, {"type": "node", "id": 4001156463, "lat": 53.2877267, "lon": -6.1758855, "tags": {"name": "David Seaver", "phone": "+353-1-288-8388", "shop": "butcher", "wheelchair": "no"}}, {"type": "node", "id": 4001304993, "lat": 52.4511016, "lon": -9.0603083, "tags": {"name": "Griffin Bros", "phone": "+353-69-62916", "shop": "butcher"}}, {"type": "node", "id": 4022416800, "lat": 53.3991406, "lon": -6.3048074, "tags": {"name": "The Finglas Meat Market", "shop": "butcher"}}, {"type": "node", "id": 4022485687, "lat": 51.7646432, "lon": -8.6561875, "tags": {"name": "John Buckley Butcher", "shop": "butcher"}}, {"type": "node", "id": 4254405408, "lat": 53.5080504, "lon": -6.5336793, "tags": {"name": "Farm House Foods", "shop": "butcher"}}, {"type": "node", "id": 4308698450, "lat": 51.8796531, "lon": -9.5835784, "tags": {"name": "J. Hurley", "shop": "butcher"}}, {"type": "node", "id": 4368865472, "lat": 53.3209734, "lon": -6.2560542, "tags": {"addr:city": "Dublin", "addr:housename": "Mortons", "addr:housenumber": "15", "addr:postal_district": "D06", "addr:street": "Dunville Avenue", "name": "Lawlor's", "shop": "butcher"}}, {"type": "node", "id": 4396967814, "lat": 53.3239558, "lon": -6.2642342, "tags": {"addr:city": "Dublin", "addr:housename": "Swan Centre", "addr:postal_district": "D06", "addr:street": "Rathmines Road Lower", "name": "James Whelan", "note": "In Dunnes Stores", "shop": "butcher"}}, {"type": "node", "id": 4422022810, "lat": 53.8017467, "lon": -9.2162639, "tags": {"name": "Moran's Family Butchers", "shop": "butcher"}}, {"type": "node", "id": 4432291082, "lat": 53.5855852, "lon": -6.2896791, "tags": {"name": "The Butchery", "shop": "butcher"}}, {"type": "node", "id": 4432643223, "lat": 53.858082, "lon": -9.2980623, "tags": {"name": "Anthony Leneghan", "shop": "butcher"}}, {"type": "node", "id": 4442512265, "lat": 53.8008106, "lon": -9.5229151, "tags": {"name": "John Moore", "shop": "butcher"}}, {"type": "node", "id": 4449834240, "lat": 51.9122223, "lon": -8.427656, "tags": {"shop": "butcher"}}, {"type": "node", "id": 4483872858, "lat": 52.7526145, "lon": -8.5016545, "tags": {"name": "A O Conl\u00e1in", "shop": "butcher"}}, {"type": "node", "id": 4513053509, "lat": 52.6632364, "lon": -8.6188068, "tags": {"shop": "butcher"}}, {"type": "node", "id": 4524493652, "lat": 52.6409729, "lon": -8.6460438, "tags": {"name": "E. Morrissey", "shop": "butcher"}}, {"type": "node", "id": 4549711708, "lat": 53.2884938, "lon": -6.1983287, "tags": {"name": "Dublin Meat Co.", "opening_hours": "Mo-Fr 08:00-19:00; Sa 08:00-18:00; Su 11:00-17:00", "phone": "+353-1-210-8681", "shop": "butcher", "website": "https://www.dublinmeatcompany.com/", "wheelchair": "yes"}}, {"type": "node", "id": 4764960288, "lat": 52.8674015, "lon": -8.7570134, "tags": {"name": "Liam O' Meara Butchers", "shop": "butcher"}}, {"type": "node", "id": 4765723762, "lat": 51.9405135, "lon": -7.8506215, "tags": {"level": "0", "name": "Sammy's", "shop": "butcher"}}, {"type": "node", "id": 4775028419, "lat": 54.951289, "lon": -7.7311746, "tags": {"addr:city": "Letterkenny", "addr:housename": "McCaul House", "addr:street": "Pearse Road", "name": "Doherty's Butchers", "shop": "butcher"}}, {"type": "node", "id": 4874378779, "lat": 53.4541896, "lon": -7.0987049, "tags": {"building": "yes", "building:levels": "1", "name": "Cannon and Cole", "shop": "butcher"}}, {"type": "node", "id": 4929081553, "lat": 52.9317365, "lon": -6.2314045, "tags": {"name": "Moore's Family Butchers", "shop": "butcher"}}, {"type": "node", "id": 4977180515, "lat": 53.1307058, "lon": -6.7450461, "tags": {"name": "Nolan's", "shop": "butcher"}}, {"type": "node", "id": 5003867385, "lat": 52.661944, "lon": -8.6274554, "tags": {"addr:city": "Limerick", "addr:housenumber": "47", "addr:street": "Roches Street", "name": "Ahearne Victuallers", "shop": "butcher"}}, {"type": "node", "id": 5005535559, "lat": 52.6620814, "lon": -8.6223236, "tags": {"name": "Michael O' Loughlin", "shop": "butcher"}}, {"type": "node", "id": 5026696023, "lat": 52.6394734, "lon": -9.4848789, "tags": {"name": "Kelly's Meat Store", "name:en": "Kelly's Meat Store", "shop": "butcher"}}, {"type": "node", "id": 5029088772, "lat": 52.2766673, "lon": -7.9955323, "tags": {"name": "Vee Meats", "shop": "butcher"}}, {"type": "node", "id": 5058524820, "lat": 52.4980578, "lon": -7.9814507, "tags": {"name": "Eamonn Ryan Family Butcher", "shop": "butcher"}}, {"type": "node", "id": 5083609971, "lat": 54.0524174, "lon": -7.801158, "tags": {"name": "McHughes Butcher", "phone": "(071) 964 5172", "shop": "butcher"}}, {"type": "node", "id": 5084742133, "lat": 54.0533078, "lon": -7.7993153, "tags": {"name": "McBrien Cannoboe Market", "phone": "(071) 964 4692", "shop": "butcher"}}, {"type": "node", "id": 5084750024, "lat": 54.0528548, "lon": -7.8006309, "tags": {"name": "Michael Scollan Butcher", "phone": "(071) 964 5948", "shop": "butcher"}}, {"type": "node", "id": 5098751508, "lat": 53.4702995, "lon": -8.5000545, "tags": {"name": "Geraghty's Family Butcher", "shop": "butcher"}}, {"type": "node", "id": 5140303844, "lat": 52.802532, "lon": -6.7362513, "tags": {"name": "Michael Kealy Butchers", "shop": "butcher"}}, {"type": "node", "id": 5141100258, "lat": 53.3270125, "lon": -8.2202625, "tags": {"addr:street": "Marina Point", "name": "Tony Carroll Family Butcher", "opening_hours": "Mo-Tu 08:00-18:15; Fr-Sa 08:00-18:30; Su Off", "phone": "+353-90-964-4949", "shop": "butcher", "website": "http://tonycarrollfamilybutchers.ie/"}}, {"type": "node", "id": 5250445723, "lat": 52.915524, "lon": -7.3474824, "tags": {"addr:city": "abbeyleix", "addr:street": "Main Street", "name": "Williams' Butchers", "shop": "butcher", "toilets:wheelchair": "no", "wheelchair": "yes", "wheelchair:description": "Door Width: 89cm"}}, {"type": "node", "id": 5282137840, "lat": 53.5106828, "lon": -6.3993762, "tags": {"shop": "butcher"}}, {"type": "node", "id": 5282651636, "lat": 51.7050051, "lon": -8.5229869, "tags": {"addr:city": "Kinsale", "addr:housenumber": "56", "addr:street": "Main Street", "name": "Barrett Butchers", "phone": "+353 21 4772 204", "shop": "butcher"}}, {"type": "node", "id": 5341631761, "lat": 52.6676677, "lon": -8.5756445, "tags": {"name": "Garrett's", "shop": "butcher"}}, {"type": "node", "id": 5391266555, "lat": 53.3899974, "lon": -6.2489925, "tags": {"addr:housenumber": "6", "addr:street": "Shanliss Road", "contact:facebook": "https://www.facebook.com/pg/meatnplaice/", "email": "selectseafoods@hotmail.co.uk", "name": "Meat 'n' Plaice", "phone": "+353-1-8486839", "shop": "butcher"}}, {"type": "node", "id": 5405991632, "lat": 53.360674, "lon": -6.2599439, "tags": {"addr:street": "Belvidere Road", "fixme": "Check name", "name": "Brady's Butchers", "shop": "butcher"}}, {"type": "node", "id": 5408203497, "lat": 53.1443846, "lon": -6.0619605, "tags": {"addr:street": "Church Road", "name": "Flemings", "shop": "butcher"}}, {"type": "node", "id": 5419527348, "lat": 53.387715, "lon": -6.2380237, "tags": {"addr:street": "Shantalla Road", "name": "P. Byrne & Sons", "shop": "butcher"}}, {"type": "node", "id": 5555122188, "lat": 52.4731596, "lon": -8.1618311, "tags": {"name": "O'Malley's Butchers", "shop": "butcher"}}, {"type": "node", "id": 5555122369, "lat": 52.4741491, "lon": -8.1582087, "tags": {"name": "R. Lewis & Sons Butchers", "shop": "butcher"}}, {"type": "node", "id": 5556021728, "lat": 53.0019443, "lon": -7.4747441, "tags": {"name": "M.J Keegan", "shop": "butcher", "toilets:wheelchair": "no", "wheelchair": "yes"}}, {"type": "node", "id": 5556721530, "lat": 52.2463669, "lon": -7.0824638, "tags": {"addr:city": "Waterford", "addr:street": "Arkeen Shopping Centre", "name": "Molloys Butchers", "opening_hours": "Sa-We 08:30-18:00, Th-Fr 08:30-19:30, Su off", "phone": "+353 51 375 333", "shop": "butcher"}}, {"type": "node", "id": 5559816874, "lat": 52.4731421, "lon": -8.1638352, "tags": {"name": "Noel's Butchers", "shop": "butcher"}}, {"type": "node", "id": 5561973810, "lat": 53.4011338, "lon": -6.180597, "tags": {"shop": "butcher"}}, {"type": "node", "id": 5571552657, "lat": 53.1066797, "lon": -6.0648226, "tags": {"addr:street": "Main Street", "name": "Gerry Mitchell", "shop": "butcher"}}, {"type": "node", "id": 5629484883, "lat": 53.287286, "lon": -6.3823142, "tags": {"addr:street": "Alderwood Avenue", "name": "The Butchers Kitchen", "shop": "butcher"}}, {"type": "node", "id": 5822949446, "lat": 51.9200864, "lon": -8.1775114, "tags": {"name": "Jim Crowleys Butcher", "payment:cash": "yes", "payment:credit_cards": "yes", "payment:debit_cards": "yes", "shop": "butcher"}}, {"type": "node", "id": 5846922335, "lat": 52.9449845, "lon": -9.0642894, "tags": {"name": "Michael Bynes", "shop": "butcher"}}, {"type": "node", "id": 5851875634, "lat": 52.6722595, "lon": -8.6627915, "tags": {"name": "MCs Family Butcher", "shop": "butcher"}}, {"type": "node", "id": 5862048414, "lat": 53.3424184, "lon": -6.3527041, "tags": {"name": "Whelan's Butchers & Deli", "shop": "butcher"}}, {"type": "node", "id": 5862048415, "lat": 53.3424271, "lon": -6.3528251, "tags": {"name": "McLoughlin's Butchers & Deli", "shop": "butcher"}}, {"type": "node", "id": 5964252996, "lat": 52.6651374, "lon": -8.6255761, "tags": {"level": "0", "name": "Frank Frawley's", "shop": "butcher"}}, {"type": "node", "id": 5995564564, "lat": 53.2939561, "lon": -6.479096, "tags": {"addr:housenumber": "B12-B13", "addr:postcode": "D24 NY84", "addr:street": "Grants Square", "contact:facebook": "https://www.facebook.com/pages/category/Butcher-Shop/FXBuckley-Factory-Rathcoole-110208972777347/", "name": "FX Buckley", "operator": "FX Buckley", "phone": "+353-1-4013925", "shop": "butcher", "website": "http://www.fxbuckleymeats.com/"}}, {"type": "node", "id": 6121093474, "lat": 52.3286974, "lon": -6.4809396, "tags": {"addr:city": "Wexford", "addr:street": "Whitemill Road", "shop": "butcher"}}, {"type": "node", "id": 6159161516, "lat": 52.7976775, "lon": -6.1611669, "tags": {"name": "Food Factory", "shop": "butcher"}}, {"type": "node", "id": 6178795475, "lat": 53.2928077, "lon": -6.137495, "tags": {"addr:city": "D\u00fan Laoghaire", "addr:housenumber": "60", "addr:street": "Georges Street Lower", "check_date": "2019-01-01", "contact:facebook": "https://www.facebook.com/Dunlaoghairefood", "email": "dunlaoghairefoodco@gmail.com", "name": "Hick's", "opening_hours": "Mo off; Tu-Sa 09:30-17:30; Su off", "phone": "+353-1-280-1433", "shop": "butcher", "website": "https://hicks.ie/"}}, {"type": "node", "id": 6184439435, "lat": 52.3717773, "lon": -8.3487096, "tags": {"name": "Fitzgerald's", "shop": "butcher"}}, {"type": "node", "id": 6192788848, "lat": 53.3397419, "lon": -6.3146739, "tags": {"addr:housenumber": "50", "addr:street": "Bulfin Road", "name": "P&P Meats", "shop": "butcher"}}, {"type": "node", "id": 6240053102, "lat": 52.617132, "lon": -6.4238115, "tags": {"name": "Christy Byrne", "shop": "butcher"}}, {"type": "node", "id": 6240781732, "lat": 53.3414395, "lon": -6.2660429, "tags": {"addr:housenumber": "16", "addr:street": "Stephen Street Upper", "name": "Smyth's Butchers", "shop": "butcher"}}, {"type": "node", "id": 6266246323, "lat": 53.3000333, "lon": -6.4992899, "tags": {"addr:housename": "Newcastle Shopping Centre", "addr:street": "Main Street", "name": "Brady's Butchers", "shop": "butcher"}}, {"type": "node", "id": 6267769985, "lat": 53.293954, "lon": -6.4795197, "tags": {"addr:housenumber": "B1-B2", "addr:street": "Grants Square", "email": "info@doylecateringmeats.com", "fax": "+353-1-4589893", "name": "Doyle Catering Meats Limited", "phone": "+353-1-4589905", "shop": "butcher", "website": "http://doylecateringmeats.com/"}}, {"type": "node", "id": 6269981825, "lat": 53.295911, "lon": -6.4803734, "tags": {"addr:housename": "11 Block G", "addr:street": "Grants Road", "name": "Market Butcher", "phone": "+353-1-4587942", "shop": "butcher", "website": "http://themarketbutchers.ie/"}}, {"type": "node", "id": 6269981826, "lat": 53.296194, "lon": -6.4802969, "tags": {"addr:housename": "14 Block G", "addr:street": "Grants Road", "name": "M&K Meats Limited", "shop": "butcher"}}, {"type": "node", "id": 6314948025, "lat": 53.1700641, "lon": -6.5333605, "tags": {"addr:street": "Main Street", "name": "Crimin Family Butcher", "shop": "butcher"}}, {"type": "node", "id": 6330851094, "lat": 53.454277, "lon": -6.2241042, "tags": {"addr:city": "Swords", "addr:street": "Forest Road", "name": "Dublin Meat Co.", "opening_hours": "Mo-Sa 08:00-18:00; Su 11:00-17:00", "shop": "butcher", "website": "https://www.dublinmeatcompany.com"}}, {"type": "node", "id": 6345515754, "lat": 53.3956407, "lon": -6.4391983, "tags": {"addr:housenumber": "16", "addr:street": "Main Street", "name": "Power's Family Butchers", "shop": "butcher"}}, {"type": "node", "id": 6357898716, "lat": 51.8878935, "lon": -8.590074, "tags": {"name": "O'Crualaoi's", "shop": "butcher"}}, {"type": "node", "id": 6358091008, "lat": 51.8878335, "lon": -8.5900411, "tags": {"name": "O'Crualaoi's", "shop": "butcher"}}, {"type": "node", "id": 6377683079, "lat": 51.7448742, "lon": -8.7380633, "tags": {"addr:city": "Bandon", "addr:housenumber": "25", "addr:street": "South Main Street", "name": "Dan Moloney's Meat Centre", "phone": "+353 23 884 4206", "shop": "butcher", "website": "http://www.moloneys.ie"}}, {"type": "node", "id": 6468106184, "lat": 52.4740414, "lon": -8.4326875, "tags": {"shop": "butcher"}}, {"type": "node", "id": 6485632234, "lat": 51.9043399, "lon": -8.9547131, "tags": {"addr:city": "Macroom", "name": "Twomey Butchers", "shop": "butcher"}}, {"type": "node", "id": 6486669396, "lat": 52.636574, "lon": -8.6681589, "tags": {"name": "Garrett's", "shop": "butcher"}}, {"type": "node", "id": 6539386993, "lat": 51.7212984, "lon": -9.1144955, "tags": {"addr:city": "Dunmanway", "addr:street": "Market Square", "name": "John O'Donovan", "shop": "butcher"}}, {"type": "node", "id": 6568653469, "lat": 53.2834158, "lon": -6.8603745, "tags": {"name": "Tom Baker's", "shop": "butcher", "wheelchair": "yes"}}, {"type": "node", "id": 387223272, "lat": 53.3494135, "lon": -6.2437735, "tags": {"cuisine": "sandwich", "name": "The Natural Bakery", "shop": "deli"}}, {"type": "node", "id": 739756785, "lat": 53.3349529, "lon": -6.2649127, "tags": {"addr:city": "Dublin", "addr:housenumber": "26", "addr:street": "Camden Street Lower", "name": "Liston's", "shop": "deli"}}, {"type": "node", "id": 884332268, "lat": 52.3955819, "lon": -6.9435857, "tags": {"name": "Ann McDonald", "shop": "deli"}}, {"type": "node", "id": 1199341934, "lat": 53.1814842, "lon": -6.7980594, "tags": {"addr:city": "Newbridge", "addr:country": "IE", "addr:county": "Kildare", "addr:street": "Eyre Street", "name": "Pawet & Gawet", "shop": "deli"}}, {"type": "node", "id": 1287844539, "lat": 53.4204743, "lon": -6.4761869, "tags": {"name": "Paul's Fine Food", "shop": "deli"}}, {"type": "node", "id": 1442384128, "lat": 52.8617758, "lon": -8.1983761, "tags": {"addr:city": "Nenagh", "addr:country": "IE", "addr:housenumber": "25", "addr:street": "Kenyon Street", "amenity": "cafe", "email": "info@countrychoice.ie", "fax": "+3536732736", "name": "Country Choice", "phone": "+3536732596", "shop": "deli", "website": "http://www.countrychoice.ie"}}, {"type": "node", "id": 1500717125, "lat": 54.1157528, "lon": -9.1550285, "tags": {"name": "Morans", "note": "Butchers and deli", "shop": "deli"}}, {"type": "node", "id": 1680832124, "lat": 52.6753002, "lon": -6.2954657, "tags": {"addr:city": "Gorey", "addr:housenumber": "67", "addr:street": "Main Street", "name": "Myles Doyle", "shop": "deli"}}, {"type": "node", "id": 1829863615, "lat": 52.5694371, "lon": -9.8630568, "tags": {"amenity": "pub", "name": "Keating's", "shop": "deli"}}, {"type": "node", "id": 1830721523, "lat": 51.8386244, "lon": -9.9014454, "tags": {"amenity": "cafe", "name": "Gossip", "shop": "deli", "wheelchair": "yes"}}, {"type": "node", "id": 1861529058, "lat": 53.273024, "lon": -9.0523446, "tags": {"addr:city": "Galway", "addr:housenumber": "38-39", "addr:street": "Shop Street", "name": "McCambridges", "opening_hours": "Mo-Th 08:00-19:00, Fr-Sa 08:00-20:00, Su 10:30-18:00", "shop": "deli"}}, {"type": "node", "id": 1891619493, "lat": 52.2734653, "lon": -6.386959, "tags": {"addr:city": "Rosslare", "addr:street": "Coast Road", "name": "Kelly's Deli", "shop": "deli", "source": "survey"}}, {"type": "node", "id": 2102030226, "lat": 53.285065, "lon": -9.0446955, "tags": {"name": "European Food Store", "shop": "deli"}}, {"type": "node", "id": 2102030262, "lat": 53.2849228, "lon": -9.0444409, "tags": {"addr:housenumber": "6", "name": "Terryland Asian Food Market", "phone": "+353 91 566 849", "shop": "deli"}}, {"type": "node", "id": 2102298911, "lat": 53.2823626, "lon": -9.0419393, "tags": {"name": "Galway Asian Foods", "shop": "deli"}}, {"type": "node", "id": 2107075591, "lat": 53.2751983, "lon": -9.0756686, "tags": {"addr:housenumber": "6", "name": "Mediterranean Store", "phone": "+353 91 526177", "shop": "deli"}}, {"type": "node", "id": 2157699665, "lat": 52.6532922, "lon": -7.253749, "tags": {"name": "The Gourmet Store", "shop": "deli"}}, {"type": "node", "id": 2235420961, "lat": 52.8679938, "lon": -8.1956261, "tags": {"name": "Delikatesy", "shop": "deli"}}, {"type": "node", "id": 2301566073, "lat": 53.3460486, "lon": -6.240938, "tags": {"internet_access": "wlan", "name": "Munchies", "shop": "deli", "wheelchair": "limited"}}, {"type": "node", "id": 2363257124, "lat": 53.3329094, "lon": -6.2754419, "tags": {"name": "Shop Easi", "shop": "deli"}}, {"type": "node", "id": 2468205731, "lat": 54.270572, "lon": -8.4729878, "tags": {"addr:city": "Sligo", "addr:country": "IE", "addr:housenumber": "3", "addr:street": "Castle Street", "name": "Kate's Kitchen", "opening_hours": "Mo-Sa 08:45-18:15", "shop": "deli", "takeaway": "yes", "website": "https://kateskitchen.ie/"}}, {"type": "node", "id": 2507794452, "lat": 53.3524573, "lon": -6.261041, "tags": {"addr:housenumber": "35", "addr:street": "O'Connell Street Upper", "name": "Blu Apple Deli;Blu Apple", "old_name": "Spire", "shop": "deli"}}, {"type": "node", "id": 2531423258, "lat": 53.3456809, "lon": -6.251638, "tags": {"name": "Deligold", "opening_hours": "Mo-Fr 07:30-15:30", "shop": "deli"}}, {"type": "node", "id": 2573726983, "lat": 53.3574023, "lon": -6.2641644, "tags": {"addr:city": "Dublin", "addr:street": "Dorset Street Upper", "amenity": "bar", "food": "yes", "name": "Eccles Townhouse", "note": "Cafe bar deli", "old_name": "Aurora", "shop": "deli"}}, {"type": "node", "id": 2579495153, "lat": 53.3096275, "lon": -6.2857473, "tags": {"addr:city": "Dublin 6W", "addr:housenumber": "14", "addr:street": "Terenure Road West", "name": "The Lovely Food Company", "opening_hours": "Mo 08:30-16:00,19:00-21:00; Tu-Fr 08:30-16:00,17:30-21:30; Sa 10:00-16:00,17:30-21:30; Su 10:00-17:00", "phone": "+353 1 4927717", "shop": "deli", "website": "http://www.lovelyfood.ie/"}}, {"type": "node", "id": 2611464705, "lat": 54.2705924, "lon": -8.4745735, "tags": {"name": "T\u00edr na n\u00d3g", "organic": "yes", "shop": "deli"}}, {"type": "node", "id": 2885644005, "lat": 53.3126407, "lon": -6.2738469, "tags": {"addr:housenumber": "98", "addr:street": "Rathgar Road", "name": "The Butler's Pantry", "shop": "deli"}}, {"type": "node", "id": 2995293835, "lat": 53.3207275, "lon": -6.3169585, "tags": {"addr:housenumber": "3", "addr:street": "Lisle Road", "contact:facebook": "https://www.facebook.com/Deli-licious-Cafe-Crumlin-Village-705970209457226/", "contact:yelp": "https://www.yelp.ie/biz/deli-licious-crumlin-village", "name": "Deli-licious", "outdoor_seating": "yes", "phone": "+353-1-4557797", "shop": "deli"}}, {"type": "node", "id": 3036071390, "lat": 53.3118498, "lon": -6.2744058, "tags": {"addr:city": "Dublin", "addr:housenumber": "49", "addr:postal_district": "D06", "addr:street": "Highfield Road", "name": "Bijou Deli", "shop": "deli"}}, {"type": "node", "id": 3075437444, "lat": 55.1828848, "lon": -7.9727645, "tags": {"name": "The Green Man", "shop": "deli"}}, {"type": "node", "id": 3080325234, "lat": 51.679118, "lon": -9.45028, "tags": {"addr:city": "Bantry", "addr:street": "Bridge Street", "description": "Also has a cafe. ", "internet_access": "wlan", "name": "The Stuffed Olive", "shop": "deli"}}, {"type": "node", "id": 3092292622, "lat": 53.3472364, "lon": -6.2569015, "tags": {"addr:city": "Dublin", "addr:housenumber": "10", "addr:street": "Burgh Quay", "name": "JaffaXpress", "phone": "+353 1 633 4853", "shop": "deli", "website": "http://www.jaffaxpress.ie/dublin.html"}}, {"type": "node", "id": 3093891981, "lat": 53.3143774, "lon": -6.2823012, "tags": {"addr:city": "Dublin 6", "addr:housenumber": "7", "addr:street": "Terenure Road North", "name": "Mayfield - Deli - Merchant", "opening_hours": "Mo-Fr 9:00-18:00, Sa-Su 10:00-18:00", "phone": "+353 1 4926830", "shop": "deli", "website": "http://www.mayfieldeatery.ie/"}}, {"type": "node", "id": 3107171975, "lat": 54.1149572, "lon": -9.1559098, "tags": {"amenity": "cafe", "name": "Heffernan's Fine Foods", "note": "Includes bakery, cafe, deli, craft butcher", "shop": "deli"}}, {"type": "node", "id": 3188666953, "lat": 53.3427717, "lon": -6.2389428, "tags": {"addr:city": "Dublin", "addr:housename": "Grand Canal Square", "addr:street": "Gallery Quay", "name": "Donnybrook Fair", "phone": "+353 1 668 3556", "shop": "deli", "website": "http://www.donnybrookfair.ie/GrandCanalSquare"}}, {"type": "node", "id": 3398130454, "lat": 53.3491443, "lon": -6.2438583, "tags": {"name": "Foodie", "operator": "Munchies", "shop": "deli", "website": "https://www.munchies.ie/"}}, {"type": "node", "id": 3583952398, "lat": 53.2954822, "lon": -6.1695897, "tags": {"name": "The Butler's Pantry", "operator": "The Butler's Pantry", "phone": "+353-1-284-3933", "shop": "deli", "website": "http://thebutlerspantry.ie", "wheelchair": "yes"}}, {"type": "node", "id": 3622671070, "lat": 52.7956737, "lon": -6.4675689, "tags": {"note": "farm food;toys;kitchenware;clothing", "shop": "deli"}}, {"type": "node", "id": 3647707203, "lat": 52.6770386, "lon": -6.292787, "tags": {"name": "Wholesome Health Store", "shop": "deli"}}, {"type": "node", "id": 3715026847, "lat": 52.758475, "lon": -8.4084982, "tags": {"name": "Subway", "shop": "deli"}}, {"type": "node", "id": 3780227761, "lat": 53.3669329, "lon": -6.2926693, "tags": {"addr:housenumber": "22", "addr:street": "Fassaugh Avenue", "name": "Deli (Closed)", "shop": "deli"}}, {"type": "node", "id": 3789420070, "lat": 53.33833, "lon": -6.2663204, "tags": {"addr:city": "Dublin", "addr:street": "Bishop Street", "name": "Taste Deli", "shop": "deli"}}, {"type": "node", "id": 3812620508, "lat": 53.7208981, "lon": -8.9970676, "tags": {"name": "The Food Store", "shop": "deli"}}, {"type": "node", "id": 4022829961, "lat": 52.6660706, "lon": -8.6209889, "tags": {"name": "The River Deli", "shop": "deli"}}, {"type": "node", "id": 4326566128, "lat": 52.6292493, "lon": -7.0661596, "tags": {"level": "0", "name": "Glasra\u00ed & Goodies", "shop": "deli", "website": "http://www.glasraiandgoodies.com/", "wheelchair": "yes"}}, {"type": "node", "id": 4400430808, "lat": 51.8928425, "lon": -8.4637867, "tags": {"name": "Sexton's Daybreak Deli and Mini Market", "operator": "Sexton", "shop": "deli"}}, {"type": "node", "id": 4464852171, "lat": 53.8582053, "lon": -9.2983943, "tags": {"cuisine": "african;asian;carribbean", "name": "Afro-Asian-Carribbean Shop", "shop": "deli"}}, {"type": "node", "id": 4482448240, "lat": 53.3007759, "lon": -6.1760549, "tags": {"name": "Bites by Rage", "operator": "Rage", "shop": "deli", "wheelchair": "yes"}}, {"type": "node", "id": 4531981157, "lat": 53.3238201, "lon": -6.2645429, "tags": {"addr:housename": "Swan Centre", "addr:street": "Rathmines Road Lower", "name": "Baxter & Greene", "shop": "deli"}}, {"type": "node", "id": 4554246007, "lat": 53.3240981, "lon": -6.2399928, "tags": {"addr:housenumber": "97b", "addr:street": "Morehampton Road", "name": "The Butlers Pantry", "opening_hours": "Mo-Fr 08:00-20:00; Sa-Su 09:00-19:00", "phone": "+353-1-6608490", "shop": "deli", "website": "http://thebutlerspantry.ie/"}}, {"type": "node", "id": 5088220665, "lat": 51.8765787, "lon": -8.3905, "tags": {"name": "Cinnamon Cottage", "phone": "+353 21 489 4922", "shop": "deli", "website": "http://cinnamoncottage.ie"}}, {"type": "node", "id": 5325940237, "lat": 51.9014965, "lon": -8.4647857, "tags": {"addr:street": "Lower Glanmire Road", "name": "Ger's Deli (Closed)", "shop": "deli"}}, {"type": "node", "id": 5400353566, "lat": 53.357708, "lon": -6.2638303, "tags": {"addr:street": "Dorset Street Lower", "amenity": "cafe", "name": "Tasty Options", "shop": "deli"}}, {"type": "node", "id": 5413079216, "lat": 53.3687392, "lon": -6.2553624, "tags": {"shop": "deli"}}, {"type": "node", "id": 5671003014, "lat": 53.4924009, "lon": -6.1358248, "tags": {"addr:housename": "Back Again", "addr:housenumber": "5", "addr:street": "Portrane Road", "name": "Ollie's Deli", "shop": "deli"}}, {"type": "node", "id": 5715931469, "lat": 52.6557529, "lon": -8.646999, "tags": {"name": "The Kitchen at Casey's", "shop": "deli"}}, {"type": "node", "id": 5715931470, "lat": 52.6557665, "lon": -8.6469284, "tags": {"name": "Chopped", "shop": "deli"}}, {"type": "node", "id": 5746271006, "lat": 53.2714636, "lon": -6.3714183, "tags": {"addr:street": "Marlfield Row", "name": "Croissant", "shop": "deli"}}, {"type": "node", "id": 5809849224, "lat": 53.579104, "lon": -6.1067931, "tags": {"name": "Olive Deli", "shop": "deli"}}, {"type": "node", "id": 6041643782, "lat": 53.3485195, "lon": -6.2272478, "tags": {"name": "Saladbox", "shop": "deli"}}, {"type": "node", "id": 6224747894, "lat": 51.7062694, "lon": -8.5237228, "tags": {"addr:city": "Kinsale", "addr:housenumber": "4", "addr:street": "Market Street", "name": "Gourmet Pantry", "phone": "+353 21 470 9215", "shop": "deli", "website": "https://www.gourmetpantry.ie"}}, {"type": "node", "id": 6261616566, "lat": 53.2968448, "lon": -6.4692279, "tags": {"addr:housename": "Daybreak", "addr:street": "Greenogue Business Plaza", "name": "Munch & Co.", "shop": "deli"}}, {"type": "node", "id": 6345581739, "lat": 53.3950294, "lon": -6.4391036, "tags": {"addr:housenumber": "1", "addr:street": "The Mall", "contact:facebook": "https://www.facebook.com/PolskieDelikatesyDublin/", "name": "Polskie Delikatesy", "phone": "+353-1-8266790", "shop": "deli"}}, {"type": "node", "id": 6374629075, "lat": 52.2577974, "lon": -7.110758, "tags": {"addr:city": "Waterford", "addr:housenumber": "31", "addr:street": "Parnell Street", "amenity": "cafe", "name": "Eatalia", "phone": "+353 87 6714158", "shop": "deli"}}, {"type": "node", "id": 6374629076, "lat": 52.2578606, "lon": -7.1106272, "tags": {"addr:housenumber": "30", "addr:street": "Parnell Street", "contact:facebook": "https://www.facebook.com/helensdeliwaterford", "name": "Helen's Deli", "shop": "deli"}}, {"type": "node", "id": 2625611155, "lat": 51.8977994, "lon": -8.4741094, "tags": {"shop": "cheese"}}, {"type": "node", "id": 4368865473, "lat": 53.3209638, "lon": -6.2561621, "tags": {"addr:city": "Dublin", "addr:housename": "Mortons", "addr:housenumber": "15", "addr:postal_district": "D06", "addr:street": "Dunville Avenue", "name": "Sheridan's", "shop": "cheese"}}, {"type": "node", "id": 4396967816, "lat": 53.3238717, "lon": -6.2644113, "tags": {"addr:city": "Dublin", "addr:housename": "Swan Centre", "addr:postal_district": "D06", "addr:street": "Rathmines Road Lower", "name": "Sheridan's Cheese", "note": "In Dunnes Stores", "operator": "Hanlon", "shop": "cheese"}}, {"type": "node", "id": 4595900465, "lat": 51.8977197, "lon": -8.4733106, "tags": {"addr:city": "Cork", "addr:housenumber": "9", "addr:street": "Princes' Street", "name": "Iago", "shop": "cheese"}}, {"type": "node", "id": 5016807798, "lat": 52.6626273, "lon": -8.6262602, "tags": {"name": "La Fromagarie", "opening_hours": "Mo-Sa 10:00-18:00", "shop": "cheese"}}, {"type": "node", "id": 5574268056, "lat": 52.2462861, "lon": -7.082129, "tags": {"email": "ardkeenqfs@sheridanscheesemongers.com", "name": "Sheridans Cheesemongers", "opening_hours": "Mo-Sa 10:00-20:00, Su 10:00-15:00", "phone": "+353 51 874 620", "shop": "cheese", "website": "https://sheridanscheesemongers.com/"}}, {"type": "node", "id": 434752963, "lat": 52.8472421, "lon": -8.2532513, "tags": {"man_made": "works", "name": "Dairy Master Farming Systems", "shop": "dairy"}}, {"type": "node", "id": 2799130455, "lat": 52.1405637, "lon": -10.27107, "tags": {"name": "The Little Cheese Shop", "note": "cheese", "shop": "dairy"}}, {"type": "node", "id": 338651159, "lat": 52.8620001, "lon": -8.1987092, "tags": {"addr:city": "Nenagh", "addr:country": "IE", "addr:housenumber": "20", "addr:street": "Kenyon Street", "name": "The Farm Shop", "shop": "farm"}}, {"type": "node", "id": 1656856550, "lat": 52.5362282, "lon": -7.2283231, "tags": {"name": "Knockdrinna Farmhouse Cheese", "shop": "farm", "website": "http://www.knockdrinna.com/"}}, {"type": "node", "id": 2314780305, "lat": 52.9030264, "lon": -9.1778813, "tags": {"name": "St. Tola's Irish Organic Goats Cheese Farm Shop", "shop": "farm", "website": "http://st-tola.ie/"}}, {"type": "node", "id": 2697052515, "lat": 52.4195011, "lon": -7.8879993, "tags": {"addr:city": "Cahir", "addr:street": "Outrath", "name": "O'Brien's Farm Shop", "phone": "+353 52 7462282", "shop": "farm", "source": "Relation", "wheelchair": "limited"}}, {"type": "node", "id": 3701093188, "lat": 51.9126972, "lon": -8.172361, "tags": {"addr:city": "Midleton", "addr:street": "Broderick Street", "name": "Farmgate Country Store", "note": "High quality bakery and take-away products, including soups, sauces, jams, pate and others.", "opening_hours": "Tu-Sa 09:00-18:00", "shop": "farm", "website": "http://www.farmgate.ie/midleton/midstore.htm"}}, {"type": "node", "id": 4022463721, "lat": 51.9091604, "lon": -8.7878601, "tags": {"name": "James Lynch LTD", "shop": "farm"}}, {"type": "node", "id": 5483492462, "lat": 54.1228567, "lon": -8.4612452, "tags": {"addr:city": "Ballymote", "addr:street": "Clooneen", "email": "commonshore@gmail.com", "name": "Common Shore", "opening_hours": "Mo-Su 10:00-18:00", "phone": "+353-85-7202370", "shop": "farm", "website": "https://www.commonshore.ie/"}}, {"type": "node", "id": 5972387456, "lat": 52.3139966, "lon": -8.1294303, "tags": {"addr:city": "Cahir", "addr:housename": "Skeheenarinky", "addr:postcode": "E21XC93", "name": "Caplice's Christmas Tree Farm", "shop": "farm", "source": "local knowledge", "website": "http://caplicetrees.christmas"}}, {"type": "node", "id": 4359042261, "lat": 53.2940502, "lon": -6.1535615, "tags": {"internet_access": "wlan", "internet_access:fee": "no", "name": "Insomnia", "opening_hours": "Mo-Fr 07:00-17:00; Sa-Su 08:00-17:00", "phone": "+353-1-284-5429", "shop": "coffee", "website": "https://www.insomnia.ie/"}}, {"type": "node", "id": 4831997145, "lat": 51.898048, "lon": -8.4797078, "tags": {"name": "Tea and Coffee land", "shop": "coffee"}}, {"type": "node", "id": 4937329774, "lat": 53.3019287, "lon": -6.17943, "tags": {"name": "Bewleys", "shop": "coffee"}}, {"type": "node", "id": 4998694221, "lat": 52.6803687, "lon": -7.0354383, "tags": {"amenity": "cafe", "name": "Costa Coffee", "shop": "coffee"}}, {"type": "node", "id": 5140213174, "lat": 52.8045905, "lon": -6.7332244, "tags": {"name": "Insomnia", "shop": "coffee"}}, {"type": "node", "id": 5395407672, "lat": 53.2944711, "lon": -6.1414969, "tags": {"addr:housenumber": "11", "addr:street": "Lower Georges Street", "name": "Two Beans", "opening_hours": "Mo-Fr 08:30-16:30; Sa 09:30-16:30", "shop": "coffee", "website": "https://www.twobeans.ie/"}}, {"type": "node", "id": 5505145746, "lat": 53.301494, "lon": -6.2456952, "tags": {"addr:city": "Dundrum", "addr:street": "Dundrum Road", "name": "Thru The Green", "shop": "coffee"}}, {"type": "node", "id": 5540639847, "lat": 53.3048097, "lon": -6.245387, "tags": {"addr:city": "Dundrum", "addr:street": "Olivemount Terrace", "name": "Black Sheep Coffee", "shop": "coffee"}}, {"type": "node", "id": 5558974162, "lat": 53.353422, "lon": -6.3897693, "tags": {"name": "Nespresso", "shop": "coffee"}}, {"type": "node", "id": 5574268071, "lat": 52.246019, "lon": -7.0852863, "tags": {"addr:housename": "Holly House", "addr:housenumber": "Unit 3", "addr:street": "Dunmore Road", "email": "info@insomnia.ie", "name": "Insomnia", "opening_hours": "Mo-Sa 09:30-18:00, Fr 09:30-19:00, Su 13:00-17:00", "phone": "+353-51-858696", "shop": "coffee", "website": "https://www.insomnia.ie/"}}, {"type": "node", "id": 5646599289, "lat": 51.9159003, "lon": -8.4711121, "tags": {"brand": "Starbucks", "name": "Starbucks", "shop": "coffee"}}, {"type": "node", "id": 5681702190, "lat": 51.8803189, "lon": -8.4666934, "tags": {"name": "Costa Coffee", "shop": "coffee"}}, {"type": "node", "id": 6205561277, "lat": 53.3432506, "lon": -6.2886011, "tags": {"name": "Groundstate coffee", "shop": "coffee"}}, {"type": "node", "id": 6478671858, "lat": 53.2925194, "lon": -6.1374604, "tags": {"addr:housenumber": "64B", "addr:street": "George's Street Lower", "description": "Coffee Roastery", "name": "Eighty9 Coffee Roasters", "opening_hours": "Mo-Fr 08:30-17:30; Sa 09:30-18:00; Su 13:00-17:00", "phone": "+35312808898", "shop": "coffee", "website": "eighty9.ie"}}, {"type": "node", "id": 6481146153, "lat": 53.2894447, "lon": -6.1291636, "tags": {"addr:housenumber": "Fallon & Byrne Restaurant", "name": "Fallon & Byrne Caf\u00e9 Deli", "opening_hours": "Mo-Su 09:00-17:00", "shop": "coffee"}}, {"type": "node", "id": 6553573183, "lat": 53.4521811, "lon": -7.1081306, "tags": {"name": "Bewley's", "opening_hours": "Mo-Su 07:00-22:00", "shop": "coffee", "wheelchair": "yes"}}, {"type": "node", "id": 6581961984, "lat": 52.7503917, "lon": -6.2028819, "tags": {"name": "Simply Great Coffee", "shop": "coffee"}}, {"type": "node", "id": 549666011, "lat": 53.3543481, "lon": -6.2572583, "tags": {"addr:city": "Dublin", "addr:country": "IE", "addr:housenumber": "2", "addr:street": "Gardiner Street Middle", "name": "Tops in Pops", "shop": "greengrocer"}}, {"type": "node", "id": 610843622, "lat": 53.2898255, "lon": -6.1307071, "tags": {"addr:housenumber": "54", "addr:street": "Georges Street Upper", "name": "DayToday", "opening_hours": "24/7", "shop": "greengrocer", "wheelchair": "no"}}, {"type": "node", "id": 660310487, "lat": 52.2503451, "lon": -7.1370594, "tags": {"name": "Slaney", "shop": "greengrocer"}}, {"type": "node", "id": 745996359, "lat": 53.2108804, "lon": -6.6525765, "tags": {"name": "Fruit 4 U", "shop": "greengrocer"}}, {"type": "node", "id": 806179513, "lat": 52.6788375, "lon": -7.816361, "tags": {"name": "Kujawiak Thurles", "shop": "greengrocer"}}, {"type": "node", "id": 806180031, "lat": 52.6787903, "lon": -7.8165453, "tags": {"name": "The Wheatgrass Shop", "shop": "greengrocer"}}, {"type": "node", "id": 828701267, "lat": 53.352569, "lon": -6.4596758, "tags": {"name": "Fix Me", "shop": "greengrocer"}}, {"type": "node", "id": 979920591, "lat": 53.1754221, "lon": -6.8023226, "tags": {"name": "Market Fresh", "shop": "greengrocer"}}, {"type": "node", "id": 1206729632, "lat": 52.8622377, "lon": -8.1989558, "tags": {"addr:city": "Nenagh", "addr:country": "IE", "addr:housenumber": "14", "addr:street": "Kenyon Street", "name": "Nenagh Fruit & Veg", "shop": "greengrocer"}}, {"type": "node", "id": 1223950038, "lat": 53.2903111, "lon": -6.2984989, "tags": {"addr:street": "Marian Road", "name": "Get Fresh", "shop": "greengrocer"}}, {"type": "node", "id": 1254065079, "lat": 53.3106024, "lon": -6.2081444, "tags": {"shop": "greengrocer"}}, {"type": "node", "id": 1257321587, "lat": 53.1987173, "lon": -8.5673457, "tags": {"name": "Donlon's Fruit & Veg", "shop": "greengrocer", "source": "survey"}}, {"type": "node", "id": 1276229116, "lat": 53.1785262, "lon": -6.8006547, "tags": {"addr:city": "Newbridge", "addr:country": "IE", "addr:county": "Kildare", "addr:street": "Moorfield Road", "name": "Harnetts", "shop": "greengrocer"}}, {"type": "node", "id": 1469221572, "lat": 53.2697566, "lon": -9.0607551, "tags": {"name": "Ernie's", "shop": "greengrocer"}}, {"type": "node", "id": 1469613203, "lat": 53.271953, "lon": -9.0536548, "tags": {"name": "Deacy's Fruit & Veg", "shop": "greengrocer"}}, {"type": "node", "id": 1500717124, "lat": 54.1154194, "lon": -9.1553865, "tags": {"name": "Fruit Market", "shop": "greengrocer"}}, {"type": "node", "id": 1558695440, "lat": 53.3715358, "lon": -6.4878808, "tags": {"name": "Fresh Today", "shop": "greengrocer"}}, {"type": "node", "id": 1596424007, "lat": 53.3370957, "lon": -6.2657469, "tags": {"addr:city": "Dublin", "addr:housenumber": "34", "addr:street": "Wexford Street", "name": "Evergreen", "shop": "greengrocer", "website": "http://thegreengrocer.ie/"}}, {"type": "node", "id": 1704593683, "lat": 53.3810641, "lon": -6.5855769, "tags": {"name": "Mastersons", "opening_hours": "Mo-Sa 09:00-18:00", "shop": "greengrocer"}}, {"type": "node", "id": 1768150408, "lat": 52.5910726, "lon": -6.4984099, "tags": {"name": "Colm O' Neill", "shop": "greengrocer"}}, {"type": "node", "id": 1865492115, "lat": 53.2631754, "lon": -9.1027102, "tags": {"name": "Polski Sklep", "shop": "greengrocer"}}, {"type": "node", "id": 1866487124, "lat": 53.2045634, "lon": -6.1058439, "tags": {"shop": "greengrocer"}}, {"type": "node", "id": 1947469808, "lat": 53.4223106, "lon": -6.1356534, "tags": {"name": "The Village Garden", "shop": "greengrocer"}}, {"type": "node", "id": 1952394063, "lat": 51.7645063, "lon": -8.6556801, "tags": {"addr:street": "Main Road", "name": "Rohu's Country Market", "shop": "greengrocer", "source": "survey", "website": "http://rohuscountrymarket.com/"}}, {"type": "node", "id": 2020208824, "lat": 53.2889193, "lon": -6.2058381, "tags": {"addr:city": "Stillorgan", "addr:housename": "Old Church", "addr:postcode": "A94 C9A2", "addr:street": "Kilmacud Road Lower", "contact:facebook": "https://www.facebook.com/fruitworldstillorgan/", "name": "Fruit World", "opening_hours": "Mo-Sa 09:00-18:00; Su 12:00-17:30", "phone": "+353-1-288-3462", "shop": "greengrocer"}}, {"type": "node", "id": 2070095838, "lat": 53.6268179, "lon": -8.1865168, "tags": {"name": "So Large", "shop": "greengrocer"}}, {"type": "node", "id": 2093895146, "lat": 53.1924605, "lon": -6.1720913, "tags": {"name": "Country Market", "shop": "greengrocer"}}, {"type": "node", "id": 2102030240, "lat": 53.2803843, "lon": -9.0482742, "tags": {"name": "Masterson's Fruit and Veg", "shop": "greengrocer"}}, {"type": "node", "id": 2102030259, "lat": 53.2848014, "lon": -9.044226, "tags": {"name": "Seasons", "shop": "greengrocer"}}, {"type": "node", "id": 2102030265, "lat": 53.2848441, "lon": -9.0443002, "tags": {"name": "Terryland Fruit and Veg", "shop": "greengrocer"}}, {"type": "node", "id": 2185360035, "lat": 52.8538316, "lon": -8.9707072, "tags": {"addr:street": "Tulla Road", "name": "Four Seasons Fruit and Veg", "shop": "greengrocer", "source": "survey, bing"}}, {"type": "node", "id": 2280188841, "lat": 53.4901175, "lon": -6.380511, "tags": {"name": "New Barn Farm/ Donkey Shed", "shop": "greengrocer"}}, {"type": "node", "id": 2401633905, "lat": 52.6503439, "lon": -7.2523599, "tags": {"name": "Phelan's", "shop": "greengrocer"}}, {"type": "node", "id": 2435830432, "lat": 53.3314042, "lon": -6.2839595, "tags": {"addr:housenumber": "205", "addr:street": "South Circular Road", "name": "Timgad", "shop": "greengrocer"}}, {"type": "node", "id": 2625611158, "lat": 51.8976202, "lon": -8.4747212, "tags": {"name": "Superfruit", "shop": "greengrocer"}}, {"type": "node", "id": 2651590050, "lat": 54.0045198, "lon": -6.4023336, "tags": {"designation": "Only Friday and Saturday", "opening_hours": "Fr-Sa", "shop": "greengrocer"}}, {"type": "node", "id": 2678751904, "lat": 54.0090352, "lon": -6.4035887, "tags": {"name": "Coutry Fresh", "shop": "greengrocer"}}, {"type": "node", "id": 2681836814, "lat": 53.3421689, "lon": -6.2550462, "tags": {"addr:city": "Dublin", "addr:housenumber": "4", "addr:street": "Nassau Street", "name": "The Runner Bean", "shop": "greengrocer"}}, {"type": "node", "id": 2703105376, "lat": 53.995882, "lon": -6.3963282, "tags": {"name": "COUNTRY FRESH", "shop": "greengrocer"}}, {"type": "node", "id": 2918993789, "lat": 53.8556169, "lon": -9.301154, "tags": {"name": "Liams Fruit and Veg", "shop": "greengrocer"}}, {"type": "node", "id": 2940666220, "lat": 53.3506918, "lon": -6.2822986, "tags": {"name": "The green grocer", "shop": "greengrocer"}}, {"type": "node", "id": 2989094423, "lat": 54.0065545, "lon": -6.4052958, "tags": {"name": "Super Fresh", "shop": "greengrocer"}}, {"type": "node", "id": 2998841760, "lat": 53.3898955, "lon": -6.2991209, "tags": {"name": "Sutton's Farm Fresh", "shop": "greengrocer"}}, {"type": "node", "id": 3026190453, "lat": 51.8976251, "lon": -8.4744404, "tags": {"name": "O'Flynns Sausages", "shop": "greengrocer"}}, {"type": "node", "id": 3028086236, "lat": 53.3336705, "lon": -6.274875, "tags": {"addr:city": "Dublin 8", "addr:housenumber": "38", "addr:street": "Clanbrassil Street Lower", "name": "Turloughs", "shop": "greengrocer"}}, {"type": "node", "id": 3077675592, "lat": 53.325399, "lon": -6.3211884, "tags": {"addr:housenumber": "8", "addr:street": "Errigal Road", "name": "K Doyle", "shop": "greengrocer"}}, {"type": "node", "id": 3107171976, "lat": 54.1155863, "lon": -9.1552237, "tags": {"name": "Taste The World", "shop": "greengrocer"}}, {"type": "node", "id": 3112540750, "lat": 53.9966008, "lon": -6.4032511, "tags": {"name": "Coutry Fresh", "shop": "greengrocer"}}, {"type": "node", "id": 3336224809, "lat": 51.7449006, "lon": -8.737958, "tags": {"addr:city": "Bandon", "name": "O'Donovans", "shop": "greengrocer"}}, {"type": "node", "id": 3403444562, "lat": 53.5592119, "lon": -6.7899027, "tags": {"name": "Fox's Fruit and Veg", "shop": "greengrocer"}}, {"type": "node", "id": 3756586607, "lat": 52.65519, "lon": -7.2470794, "tags": {"shop": "greengrocer"}}, {"type": "node", "id": 4266245726, "lat": 53.3339813, "lon": -6.2922702, "tags": {"name": "Shazly & Sons", "shop": "greengrocer"}}, {"type": "node", "id": 4381067694, "lat": 53.2727999, "lon": -7.490278, "tags": {"name": "Hereford & More", "name:en": "Hereford & More", "shop": "greengrocer"}}, {"type": "node", "id": 5012463281, "lat": 53.9837762, "lon": -7.3492484, "tags": {"name": "Fresh Today Extra", "shop": "greengrocer"}}, {"type": "node", "id": 5029088773, "lat": 52.2772992, "lon": -7.9950643, "tags": {"name": "Vee Valley Fruit and Veg", "shop": "greengrocer"}}, {"type": "node", "id": 5037771413, "lat": 52.6380267, "lon": -9.4849058, "tags": {"name": "Casey's", "shop": "greengrocer"}}, {"type": "node", "id": 5141100261, "lat": 53.3271831, "lon": -8.2199916, "tags": {"addr:street": "Marina Point", "name": "Polska Strefa", "shop": "greengrocer"}}, {"type": "node", "id": 5419527354, "lat": 53.3877398, "lon": -6.2374822, "tags": {"addr:street": "Shantalla Road", "name": "Barry's", "shop": "greengrocer"}}, {"type": "node", "id": 5619858828, "lat": 52.3390657, "lon": -6.46173, "tags": {"addr:city": "Wexford", "addr:street": "Church Lane", "shop": "greengrocer"}}, {"type": "node", "id": 5650553853, "lat": 52.956182, "lon": -7.799033, "tags": {"shop": "greengrocer"}}, {"type": "node", "id": 5862047876, "lat": 53.3424338, "lon": -6.3509151, "tags": {"name": "K. Doyle Greengrocer", "shop": "greengrocer"}}, {"type": "node", "id": 6045362068, "lat": 53.3847864, "lon": -6.2372098, "tags": {"addr:street": "Grace Park Road", "name": "Beaumont Drive In", "shop": "greengrocer"}}, {"type": "node", "id": 6174940070, "lat": 53.3292445, "lon": -6.3415702, "tags": {"addr:city": "Dublin", "addr:housename": "Bluebell Business Centre", "addr:housenumber": "Unit A1", "addr:postcode": "D12XCY2", "addr:street": "Old Naas Road", "description": "The Green Door Market is an indoor food market located in Unit A1,Bluebell Business Centre, Old Naas Road, Dublin 12. Our mission is to bring to you top quality food in an inviting space where customers can enjoy a convivial market experience and meet the", "name": "Green Door Market", "opening_hours": "Tu-Fr 12:00-19:00,Sa 09:30-16:00, Su 11:00-17:00", "phone": "+353 85 855 2665", "shop": "greengrocer", "website": "https://www.thegreendoor.ie/"}}, {"type": "node", "id": 6178704557, "lat": 53.2930979, "lon": -6.138177, "tags": {"addr:city": "D\u00fan Laoghaire", "addr:housenumber": "49", "addr:street": "Georges Street Lower", "check_date": "2019-01-01", "name": "T. Murphy", "phone": "+353-1-280-1068", "shop": "greengrocer"}}, {"type": "node", "id": 6313845386, "lat": 51.8535406, "lon": -8.7334328, "tags": {"addr:housenumber": "12", "addr:street": "12 Orchard Ln, Aherla More, Aherla, Co. Cork, Ireland", "name": "Delaneys Centra", "opening_hours": "Mo-Sa 07:00-21:00; Su 08:00-20:00", "phone": "+353 21 733 1160", "shop": "greengrocer", "website": "https://centra.ie/locate/munster/cork/aherla"}}, {"type": "node", "id": 6327913502, "lat": 52.139305, "lon": -10.2727275, "tags": {"name": "Kingdom Fresh", "phone": "+353 66 915 1085", "shop": "greengrocer"}}, {"type": "node", "id": 6479165508, "lat": 53.2990234, "lon": -8.7457971, "tags": {"name": "Athenry Country Market", "shop": "greengrocer"}}]}